<?xml version="1.0" encoding="UTF-8"?>
<kml xmlns="http://www.opengis.net/kml/2.2" xmlns:gx="http://www.google.com/kml/ext/2.2" xmlns:kml="http://www.opengis.net/kml/2.2" xmlns:atom="http://www.w3.org/2005/Atom">
<Document>
	<name>Brevet des Provinces Françaises</name>
	<Snippet maxLines="2">Version du 2011-05-29 à 23:03</Snippet>
	<StyleMap id="sn_pm_circle3140">
		<Pair>
			<key>normal</key>
			<styleUrl>#sn_pm_circle3141</styleUrl>
		</Pair>
		<Pair>
			<key>highlight</key>
			<styleUrl>#sn_pm_circle3142</styleUrl>
		</Pair>
	</StyleMap>
	<Style id="sn_pm_circle3141">
		<IconStyle>
			<color>ff0affff</color>
			<Icon>
				<href>http://maps.google.com/mapfiles/kml/shapes/placemark_circle.png</href>
			</Icon>
		</IconStyle>
		<LabelStyle>
			<color>ff80ffff</color>
			<scale>0.75</scale>
		</LabelStyle>
	</Style>
	<Style id="sn_pm_circle3142">
		<IconStyle>
			<color>ff0affff</color>
			<Icon>
				<href>http://maps.google.com/mapfiles/kml/shapes/placemark_circle_highlight.png</href>
			</Icon>
		</IconStyle>
		<LabelStyle>
			<color>ff80ffff</color>
			<scale>0.75</scale>
		</LabelStyle>
	</Style>
	<NetworkLink>
		<name>Provinces</name>
		<Link>
			<href>http://www.cyclotourisme.org/misc/BPF/provinces2013.kmz</href>
		</Link>
	</NetworkLink>
	<Folder>
		<name>Alsace</name>
		<Folder>
			<name>67 Bas-Rhin</name>
			<open>1</open>
			<Placemark>
				<name>Château du Haut-Barr</name>
				<styleUrl>#sn_pm_circle3140</styleUrl>
				<Point>
					<coordinates>7.338610999999999,48.725,0</coordinates>
				</Point>
			</Placemark>
			<Placemark>
				<name>Saverne</name>
				<styleUrl>#sn_pm_circle3140</styleUrl>
				<Point>
					<coordinates>7.362673,48.74134,0</coordinates>
				</Point>
			</Placemark>
			<Placemark>
				<styleUrl>#sn_pm_circle3140</styleUrl>
				<LineString>
					<coordinates>
						7.362673,48.74134,0 7.338610999999999,48.725,0 
					</coordinates>
				</LineString>
			</Placemark>
			<Placemark>
				<name>Château du Haut-Koenigsbourg</name>
				<styleUrl>#sn_pm_circle3140</styleUrl>
				<Point>
					<coordinates>7.344092,48.2494,0</coordinates>
				</Point>
			</Placemark>
			<Placemark>
				<name>Diebolsheim</name>
				<styleUrl>#sn_pm_circle3140</styleUrl>
				<Point>
					<coordinates>7.662417,48.29048,0</coordinates>
				</Point>
			</Placemark>
			<Placemark>
				<name>Mont Sainte-Odile</name>
				<styleUrl>#sn_pm_circle3140</styleUrl>
				<Point>
					<coordinates>7.4,48.43333,0</coordinates>
				</Point>
			</Placemark>
			<Placemark>
				<name>Obersteinbach</name>
				<styleUrl>#sn_pm_circle3140</styleUrl>
				<Point>
					<coordinates>7.688299,49.0359,0</coordinates>
				</Point>
			</Placemark>
			<Placemark>
				<name>Strasbourg</name>
				<styleUrl>#sn_pm_circle3140</styleUrl>
				<Point>
					<coordinates>7.743749,48.58293,0</coordinates>
				</Point>
			</Placemark>
		</Folder>
		<Folder>
			<name>68 Haut-Rhin</name>
			<open>1</open>
			<Placemark>
				<name>Colmar</name>
				<styleUrl>#sn_pm_circle3140</styleUrl>
				<Point>
					<coordinates>7.359971999999999,48.08068,0</coordinates>
				</Point>
			</Placemark>
			<Placemark>
				<name>Ferrette</name>
				<styleUrl>#sn_pm_circle3140</styleUrl>
				<Point>
					<coordinates>7.313848,47.49432,0</coordinates>
				</Point>
			</Placemark>
			<Placemark>
				<name>Grand Ballon</name>
				<styleUrl>#sn_pm_circle3140</styleUrl>
				<Point>
					<coordinates>7.098611,47.90111,0</coordinates>
				</Point>
			</Placemark>
			<Placemark>
				<name>Lac Blanc</name>
				<styleUrl>#sn_pm_circle3140</styleUrl>
				<Point>
					<coordinates>7.084593,48.13724,0</coordinates>
				</Point>
			</Placemark>
			<Placemark>
				<name>Neuf Brisach</name>
				<styleUrl>#sn_pm_circle3140</styleUrl>
				<Point>
					<coordinates>7.528897,48.01819,0</coordinates>
				</Point>
			</Placemark>
			<Placemark>
				<name>Riquewihr</name>
				<styleUrl>#sn_pm_circle3140</styleUrl>
				<Point>
					<coordinates>7.297283,48.16693,0</coordinates>
				</Point>
			</Placemark>
		</Folder>
		<Folder>
			<name>90 Territoire de Belfort</name>
			<open>1</open>
			<Placemark>
				<name>Ballon d&apos;Alsace</name>
				<styleUrl>#sn_pm_circle3140</styleUrl>
				<Point>
					<coordinates>6.842972,47.82088,0</coordinates>
				</Point>
			</Placemark>
			<Placemark>
				<name>Belfort</name>
				<styleUrl>#sn_pm_circle3140</styleUrl>
				<Point>
					<coordinates>6.862220999999999,47.63883,0</coordinates>
				</Point>
			</Placemark>
			<Placemark>
				<name>Cravanche</name>
				<styleUrl>#sn_pm_circle3140</styleUrl>
				<Point>
					<coordinates>6.83332,47.65382,0</coordinates>
				</Point>
			</Placemark>
			<Placemark>
				<name>Delle</name>
				<styleUrl>#sn_pm_circle3140</styleUrl>
				<Point>
					<coordinates>6.996556999999999,47.5062,0</coordinates>
				</Point>
			</Placemark>
			<Placemark>
				<name>Réchesy</name>
				<styleUrl>#sn_pm_circle3140</styleUrl>
				<Point>
					<coordinates>7.113244,47.50756,0</coordinates>
				</Point>
			</Placemark>
			<Placemark>
				<name>Rougemont-le-Château</name>
				<styleUrl>#sn_pm_circle3140</styleUrl>
				<Point>
					<coordinates>6.967237,47.73569,0</coordinates>
				</Point>
			</Placemark>
		</Folder>
	</Folder>
	<Folder>
		<name>Anjou</name>
		<Folder>
			<name>49 Maine-et-Loire</name>
			<open>1</open>
			<Placemark>
				<name>Baugé</name>
				<styleUrl>#sn_pm_circle3140</styleUrl>
				<Point>
					<coordinates>-0.1045616,47.54192000000001,0</coordinates>
				</Point>
			</Placemark>
			<Placemark>
				<name>Champtoceaux</name>
				<styleUrl>#sn_pm_circle3140</styleUrl>
				<Point>
					<coordinates>-1.26648,47.33715,0</coordinates>
				</Point>
			</Placemark>
			<Placemark>
				<name>Durtal</name>
				<styleUrl>#sn_pm_circle3140</styleUrl>
				<Point>
					<coordinates>-0.2272648,47.67332,0</coordinates>
				</Point>
			</Placemark>
			<Placemark>
				<name>Montreuil-Bellay</name>
				<styleUrl>#sn_pm_circle3140</styleUrl>
				<Point>
					<coordinates>-0.1531339,47.13289,0</coordinates>
				</Point>
			</Placemark>
			<Placemark>
				<name>Saint-Florent-le-Vieil</name>
				<styleUrl>#sn_pm_circle3140</styleUrl>
				<Point>
					<coordinates>-1.019598,47.3625,0</coordinates>
				</Point>
			</Placemark>
			<Placemark>
				<name>Saint-Mathurin-sur-Loire</name>
				<styleUrl>#sn_pm_circle3140</styleUrl>
				<Point>
					<coordinates>-0.3201926,47.40907,0</coordinates>
				</Point>
			</Placemark>
		</Folder>
	</Folder>
	<Folder>
		<name>Artois</name>
		<Folder>
			<name>62 Pas-de-Calais</name>
			<open>1</open>
			<Placemark>
				<name>Aire-sur-la-Lys</name>
				<styleUrl>#sn_pm_circle3140</styleUrl>
				<Point>
					<coordinates>2.395588,50.63798999999999,0</coordinates>
				</Point>
			</Placemark>
			<Placemark>
				<name>Auxy-le-Château</name>
				<styleUrl>#sn_pm_circle3140</styleUrl>
				<Point>
					<coordinates>2.112503,50.22997000000001,0</coordinates>
				</Point>
			</Placemark>
			<Placemark>
				<name>Caps Gris Nez et Blanc Nez</name>
				<styleUrl>#sn_pm_circle3140</styleUrl>
				<Point>
					<coordinates>1.710652,50.92506999999999,0</coordinates>
				</Point>
			</Placemark>
			<Placemark>
				<name>Montreuil-sur-Mer</name>
				<styleUrl>#sn_pm_circle3140</styleUrl>
				<Point>
					<coordinates>1.76033,50.46288,0</coordinates>
				</Point>
			</Placemark>
			<Placemark>
				<name>Mont-Saint-Eloi</name>
				<styleUrl>#sn_pm_circle3140</styleUrl>
				<Point>
					<coordinates>2.69059,50.35046,0</coordinates>
				</Point>
			</Placemark>
			<Placemark>
				<name>Neuville Saint-Vaast</name>
				<styleUrl>#sn_pm_circle3140</styleUrl>
				<Point>
					<coordinates>2.760152,50.35521,0</coordinates>
				</Point>
			</Placemark>
			<Placemark>
				<styleUrl>#sn_pm_circle3140</styleUrl>
				<LineString>
					<coordinates>
						2.760152,50.35521,0 2.69059,50.35046,0 
					</coordinates>
				</LineString>
			</Placemark>
			<Placemark>
				<name>Vieil-Hesdin</name>
				<styleUrl>#sn_pm_circle3140</styleUrl>
				<Point>
					<coordinates>2.098575,50.35652,0</coordinates>
				</Point>
			</Placemark>
		</Folder>
	</Folder>
	<Folder>
		<name>Aunis-Saintonge</name>
		<Folder>
			<name>16 Charente</name>
			<open>1</open>
			<Placemark>
				<name>Aubeterre-sur-Dronne</name>
				<styleUrl>#sn_pm_circle3140</styleUrl>
				<Point>
					<coordinates>0.1714516,45.27045,0</coordinates>
				</Point>
			</Placemark>
			<Placemark>
				<name>Chassenon</name>
				<styleUrl>#sn_pm_circle3140</styleUrl>
				<Point>
					<coordinates>0.7654913,45.85140000000001,0</coordinates>
				</Point>
			</Placemark>
			<Placemark>
				<name>La Rochefoucauld</name>
				<styleUrl>#sn_pm_circle3140</styleUrl>
				<Point>
					<coordinates>0.3865463000000001,45.74026,0</coordinates>
				</Point>
			</Placemark>
			<Placemark>
				<name>Rouillac</name>
				<styleUrl>#sn_pm_circle3140</styleUrl>
				<Point>
					<coordinates>-0.0622629,45.77488,0</coordinates>
				</Point>
			</Placemark>
			<Placemark>
				<name>Saint-Germain-de-Confolens</name>
				<styleUrl>#sn_pm_circle3140</styleUrl>
				<Point>
					<coordinates>0.6841482,46.05394,0</coordinates>
				</Point>
			</Placemark>
			<Placemark>
				<name>Villebois-Lavalette</name>
				<styleUrl>#sn_pm_circle3140</styleUrl>
				<Point>
					<coordinates>0.28192,45.4828,0</coordinates>
				</Point>
			</Placemark>
		</Folder>
		<Folder>
			<name>17 Charente-Maritime</name>
			<open>1</open>
			<Placemark>
				<name>Ars-en-Ré</name>
				<styleUrl>#sn_pm_circle3140</styleUrl>
				<Point>
					<coordinates>-1.516015,46.20781000000001,0</coordinates>
				</Point>
			</Placemark>
			<Placemark>
				<name>Aulnay-de-Saintonge</name>
				<styleUrl>#sn_pm_circle3140</styleUrl>
				<Point>
					<coordinates>-0.3468924,46.02094,0</coordinates>
				</Point>
			</Placemark>
			<Placemark>
				<name>Brouage</name>
				<styleUrl>#sn_pm_circle3140</styleUrl>
				<Point>
					<coordinates>-1.077118,45.84866,0</coordinates>
				</Point>
			</Placemark>
			<Placemark>
				<name>Fouras</name>
				<styleUrl>#sn_pm_circle3140</styleUrl>
				<Point>
					<coordinates>-1.095236,45.98893000000001,0</coordinates>
				</Point>
			</Placemark>
			<Placemark>
				<name>Talmont-sur-Gironde</name>
				<styleUrl>#sn_pm_circle3140</styleUrl>
				<Point>
					<coordinates>-0.9083423000000002,45.5348,0</coordinates>
				</Point>
			</Placemark>
		</Folder>
	</Folder>
	<Folder>
		<name>Auvergne</name>
		<Folder>
			<name>15 Cantal</name>
			<open>1</open>
			<Placemark>
				<name>Apchon</name>
				<styleUrl>#sn_pm_circle3140</styleUrl>
				<Point>
					<coordinates>2.69321,45.24762,0</coordinates>
				</Point>
			</Placemark>
			<Placemark>
				<name>Murat</name>
				<styleUrl>#sn_pm_circle3140</styleUrl>
				<Point>
					<coordinates>2.86881,45.11202,0</coordinates>
				</Point>
			</Placemark>
			<Placemark>
				<name>Saint-Mamet-la-Salvetat</name>
				<styleUrl>#sn_pm_circle3140</styleUrl>
				<Point>
					<coordinates>2.304697,44.85727,0</coordinates>
				</Point>
			</Placemark>
			<Placemark>
				<name>Saint-Pierre-d&apos;Oléron</name>
				<styleUrl>#sn_pm_circle3140</styleUrl>
				<Point>
					<coordinates>-1.306048,45.94373,0</coordinates>
				</Point>
			</Placemark>
			<Placemark>
				<name>Saint-Urcize</name>
				<styleUrl>#sn_pm_circle3140</styleUrl>
				<Point>
					<coordinates>3.004907000000001,44.69772,0</coordinates>
				</Point>
			</Placemark>
			<Placemark>
				<name>Salers</name>
				<styleUrl>#sn_pm_circle3140</styleUrl>
				<Point>
					<coordinates>2.495779,45.13876,0</coordinates>
				</Point>
			</Placemark>
			<Placemark>
				<name>Thiézac</name>
				<styleUrl>#sn_pm_circle3140</styleUrl>
				<Point>
					<coordinates>2.664781,45.01467,0</coordinates>
				</Point>
			</Placemark>
		</Folder>
		<Folder>
			<name>63 Puy-de-Dôme</name>
			<Placemark>
				<name>Aubusson-d&apos;Auvergne</name>
				<styleUrl>#sn_pm_circle3140</styleUrl>
				<Point>
					<coordinates>3.574301335687855,45.75566094539194,0</coordinates>
				</Point>
			</Placemark>
			<Placemark>
				<name>Col de Ceyssat</name>
				<styleUrl>#sn_pm_circle3140</styleUrl>
				<Point>
					<coordinates>2.957969,45.76379,0</coordinates>
				</Point>
			</Placemark>
			<Placemark>
				<name>Les Ancizes-Comps</name>
				<styleUrl>#sn_pm_circle3140</styleUrl>
				<Point>
					<coordinates>2.808508,45.92484,0</coordinates>
				</Point>
			</Placemark>
			<Placemark>
				<name>Orcival</name>
				<styleUrl>#sn_pm_circle3140</styleUrl>
				<Point>
					<coordinates>2.84195,45.68318,0</coordinates>
				</Point>
			</Placemark>
			<Placemark>
				<name>Tournoël</name>
				<styleUrl>#sn_pm_circle3140</styleUrl>
				<Point>
					<coordinates>3.038627,45.88484,0</coordinates>
				</Point>
			</Placemark>
		</Folder>
	</Folder>
	<Folder>
		<name>Béarn</name>
		<Folder>
			<name>64 Pyrénées-Atlantiques</name>
			<open>1</open>
			<Placemark>
				<name>Ascain</name>
				<styleUrl>#sn_pm_circle3140</styleUrl>
				<Point>
					<coordinates>-1.621061,43.34482,0</coordinates>
				</Point>
			</Placemark>
			<Placemark>
				<name>Col d&apos;Aubisque</name>
				<styleUrl>#sn_pm_circle3140</styleUrl>
				<Point>
					<coordinates>-0.3420012,42.97681,0</coordinates>
				</Point>
			</Placemark>
			<Placemark>
				<name>Itxassou</name>
				<styleUrl>#sn_pm_circle3140</styleUrl>
				<Point>
					<coordinates>-1.401538,43.33215,0</coordinates>
				</Point>
			</Placemark>
			<Placemark>
				<name>Morlanne</name>
				<styleUrl>#sn_pm_circle3140</styleUrl>
				<Point>
					<coordinates>-0.533893,43.51329,0</coordinates>
				</Point>
			</Placemark>
			<Placemark>
				<name>Besse-en-Chandesse</name>
				<styleUrl>#sn_pm_circle3140</styleUrl>
				<Point>
					<coordinates>2.93468,45.51237,0</coordinates>
				</Point>
			</Placemark>
			<Placemark>
				<name>Mouguerre</name>
				<styleUrl>#sn_pm_circle3140</styleUrl>
				<Point>
					<coordinates>-1.415872,43.46707,0</coordinates>
				</Point>
			</Placemark>
			<Placemark>
				<name>Sauveterre-de-Béarn</name>
				<styleUrl>#sn_pm_circle3140</styleUrl>
				<Point>
					<coordinates>-0.9431812999999999,43.39979,0</coordinates>
				</Point>
			</Placemark>
		</Folder>
	</Folder>
	<Folder>
		<name>Berry</name>
		<Folder>
			<name>18 Cher</name>
			<open>1</open>
			<Placemark>
				<name>Apremont-sur-Allier</name>
				<styleUrl>#sn_pm_circle3140</styleUrl>
				<Point>
					<coordinates>3.04766,46.90693999999999,0</coordinates>
				</Point>
			</Placemark>
			<Placemark>
				<name>Le Guétin</name>
				<styleUrl>#sn_pm_circle3140</styleUrl>
				<Point>
					<coordinates>3.070844,46.94844,0</coordinates>
				</Point>
			</Placemark>
			<Placemark>
				<styleUrl>#sn_pm_circle3140</styleUrl>
				<LineString>
					<coordinates>
						3.070844,46.94844,0 3.04766,46.90693999999999,0 
					</coordinates>
				</LineString>
			</Placemark>
			<Placemark>
				<name>Châteaumeillant</name>
				<styleUrl>#sn_pm_circle3140</styleUrl>
				<Point>
					<coordinates>2.202046,46.56191999999999,0</coordinates>
				</Point>
			</Placemark>
			<Placemark>
				<name>Culan</name>
				<styleUrl>#sn_pm_circle3140</styleUrl>
				<Point>
					<coordinates>2.351777,46.54688999999999,0</coordinates>
				</Point>
			</Placemark>
			<Placemark>
				<name>Mehun-sur-Yèvre</name>
				<styleUrl>#sn_pm_circle3140</styleUrl>
				<Point>
					<coordinates>2.215264,47.14429,0</coordinates>
				</Point>
			</Placemark>
			<Placemark>
				<name>Meillant</name>
				<styleUrl>#sn_pm_circle3140</styleUrl>
				<Point>
					<coordinates>2.504979,46.78054999999999,0</coordinates>
				</Point>
			</Placemark>
			<Placemark>
				<name>Sancerre</name>
				<styleUrl>#sn_pm_circle3140</styleUrl>
				<Point>
					<coordinates>2.836868,47.33006,0</coordinates>
				</Point>
			</Placemark>
		</Folder>
		<Folder>
			<name>36 Indre</name>
			<open>1</open>
			<Placemark>
				<name>Ciron</name>
				<styleUrl>#sn_pm_circle3140</styleUrl>
				<Point>
					<coordinates>1.245041,46.6272,0</coordinates>
				</Point>
			</Placemark>
			<Placemark>
				<name>Nohant-Vic</name>
				<styleUrl>#sn_pm_circle3140</styleUrl>
				<Point>
					<coordinates>1.974904,46.62545,0</coordinates>
				</Point>
			</Placemark>
			<Placemark>
				<name>Palluau-sur-Indre</name>
				<styleUrl>#sn_pm_circle3140</styleUrl>
				<Point>
					<coordinates>1.312741,46.94394,0</coordinates>
				</Point>
			</Placemark>
			<Placemark>
				<name>Saint-Benoït-du-Sault</name>
				<styleUrl>#sn_pm_circle3140</styleUrl>
				<Point>
					<coordinates>1.389854,46.43999,0</coordinates>
				</Point>
			</Placemark>
			<Placemark>
				<name>Sainte-Sévère-sur-Indre</name>
				<styleUrl>#sn_pm_circle3140</styleUrl>
				<Point>
					<coordinates>2.069247,46.48695,0</coordinates>
				</Point>
			</Placemark>
			<Placemark>
				<name>Valençay</name>
				<styleUrl>#sn_pm_circle3140</styleUrl>
				<Point>
					<coordinates>1.569839,47.16167,0</coordinates>
				</Point>
			</Placemark>
		</Folder>
	</Folder>
	<Folder>
		<name>Bourbonnais</name>
		<Folder>
			<name>03 Allier</name>
			<open>1</open>
			<Placemark>
				<name>Bourbon-l&apos;Archambault</name>
				<styleUrl>#sn_pm_circle3140</styleUrl>
				<Point>
					<coordinates>3.057791,46.58175,0</coordinates>
				</Point>
			</Placemark>
			<Placemark>
				<name>Châtel-Montagne</name>
				<styleUrl>#sn_pm_circle3140</styleUrl>
				<Point>
					<coordinates>3.682965344294082,46.11359293037235,0</coordinates>
				</Point>
			</Placemark>
			<Placemark>
				<name>Hérisson</name>
				<styleUrl>#sn_pm_circle3140</styleUrl>
				<Point>
					<coordinates>2.711444,46.50942000000001,0</coordinates>
				</Point>
			</Placemark>
			<Placemark>
				<name>Huriel</name>
				<styleUrl>#sn_pm_circle3140</styleUrl>
				<Point>
					<coordinates>2.475596,46.37547000000001,0</coordinates>
				</Point>
			</Placemark>
			<Placemark>
				<name>Saint-Bonnet-Tronçais</name>
				<styleUrl>#sn_pm_circle3140</styleUrl>
				<Point>
					<coordinates>2.694414,46.65993999999999,0</coordinates>
				</Point>
			</Placemark>
			<Placemark>
				<name>Saint-Pourçain-sur-Besbre</name>
				<styleUrl>#sn_pm_circle3140</styleUrl>
				<Point>
					<coordinates>3.638231,46.47479,0</coordinates>
				</Point>
			</Placemark>
		</Folder>
	</Folder>
	<Folder>
		<name>Bourgogne</name>
		<Folder>
			<name>01 Ain</name>
			<open>1</open>
			<Placemark>
				<name>Bénonces</name>
				<styleUrl>#sn_pm_circle3140</styleUrl>
				<Point>
					<coordinates>5.478338,45.82782,0</coordinates>
				</Point>
			</Placemark>
			<Placemark>
				<name>Col de la Faucille</name>
				<styleUrl>#sn_pm_circle3140</styleUrl>
				<Point>
					<coordinates>6.018652,46.3696,0</coordinates>
				</Point>
			</Placemark>
			<Placemark>
				<name>Hauteville-Lompnes</name>
				<styleUrl>#sn_pm_circle3140</styleUrl>
				<Point>
					<coordinates>5.602546,45.97661,0</coordinates>
				</Point>
			</Placemark>
			<Placemark>
				<name>Izernore</name>
				<styleUrl>#sn_pm_circle3140</styleUrl>
				<Point>
					<coordinates>5.554825,46.21978,0</coordinates>
				</Point>
			</Placemark>
			<Placemark>
				<name>Neuville-sur-Ain</name>
				<styleUrl>#sn_pm_circle3140</styleUrl>
				<Point>
					<coordinates>5.371304,46.0815,0</coordinates>
				</Point>
			</Placemark>
			<Placemark>
				<name>Pérouges</name>
				<styleUrl>#sn_pm_circle3140</styleUrl>
				<Point>
					<coordinates>5.178123,45.90353000000001,0</coordinates>
				</Point>
			</Placemark>
		</Folder>
		<Folder>
			<name>21 Côte-d&apos;Or</name>
			<open>1</open>
			<Placemark>
				<name>Alise-Sainte-Reine</name>
				<styleUrl>#sn_pm_circle3140</styleUrl>
				<Point>
					<coordinates>4.487851,47.53751,0</coordinates>
				</Point>
			</Placemark>
			<Placemark>
				<name>Beaune</name>
				<styleUrl>#sn_pm_circle3140</styleUrl>
				<Point>
					<coordinates>4.83827,47.02398,0</coordinates>
				</Point>
			</Placemark>
			<Placemark>
				<name>Châteauneuf-en-Auxois</name>
				<styleUrl>#sn_pm_circle3140</styleUrl>
				<Point>
					<coordinates>4.640223,47.2187,0</coordinates>
				</Point>
			</Placemark>
			<Placemark>
				<name>Châtillon-sur-Seine</name>
				<styleUrl>#sn_pm_circle3140</styleUrl>
				<Point>
					<coordinates>4.572845,47.8576,0</coordinates>
				</Point>
			</Placemark>
			<Placemark>
				<name>La Rochepot</name>
				<styleUrl>#sn_pm_circle3140</styleUrl>
				<Point>
					<coordinates>4.675278,46.95524,0</coordinates>
				</Point>
			</Placemark>
			<Placemark>
				<name>Saint-Seine-l&apos;Abbaye</name>
				<styleUrl>#sn_pm_circle3140</styleUrl>
				<Point>
					<coordinates>4.788826,47.44024,0</coordinates>
				</Point>
			</Placemark>
		</Folder>
		<Folder>
			<name>71 Saône-et-Loire</name>
			<open>1</open>
			<Placemark>
				<name>Berzé-le-Châtel</name>
				<styleUrl>#sn_pm_circle3140</styleUrl>
				<Point>
					<coordinates>4.689419,46.38792000000001,0</coordinates>
				</Point>
			</Placemark>
			<Placemark>
				<name>Brancion</name>
				<styleUrl>#sn_pm_circle3140</styleUrl>
				<Point>
					<coordinates>4.79663,46.54759,0</coordinates>
				</Point>
			</Placemark>
			<Placemark>
				<name>Mont-Saint-Vincent</name>
				<styleUrl>#sn_pm_circle3140</styleUrl>
				<Point>
					<coordinates>4.476742,46.62965,0</coordinates>
				</Point>
			</Placemark>
			<Placemark>
				<name>Saint-Gengoux-le-National</name>
				<styleUrl>#sn_pm_circle3140</styleUrl>
				<Point>
					<coordinates>4.662895,46.6149,0</coordinates>
				</Point>
			</Placemark>
			<Placemark>
				<name>Solutre-Pouilly</name>
				<styleUrl>#sn_pm_circle3140</styleUrl>
				<Point>
					<coordinates>4.724507,46.29655,0</coordinates>
				</Point>
			</Placemark>
			<Placemark>
				<name>Autun</name>
				<LookAt>
					<longitude>4.300399651149047</longitude>
					<latitude>46.95200804326128</latitude>
					<altitude>0</altitude>
					<heading>-0.0009635601914028519</heading>
					<tilt>26.16305641501325</tilt>
					<range>1432.484415864883</range>
					<gx:altitudeMode>relativeToSeaFloor</gx:altitudeMode>
				</LookAt>
				<styleUrl>#sn_pm_circle3140</styleUrl>
				<Point>
					<gx:drawOrder>1</gx:drawOrder>
					<coordinates>4.301552855750299,46.95085731259416,0</coordinates>
				</Point>
			</Placemark>
		</Folder>
		<Folder>
			<name>89 Yonne</name>
			<open>1</open>
			<Placemark>
				<name>Ancy-le-Franc</name>
				<styleUrl>#sn_pm_circle3140</styleUrl>
				<Point>
					<coordinates>4.164162,47.77659,0</coordinates>
				</Point>
			</Placemark>
			<Placemark>
				<name>Arcy-sur-Cure</name>
				<styleUrl>#sn_pm_circle3140</styleUrl>
				<Point>
					<coordinates>3.758239,47.60291,0</coordinates>
				</Point>
			</Placemark>
			<Placemark>
				<name>Montréal-sur-Serein</name>
				<styleUrl>#sn_pm_circle3140</styleUrl>
				<Point>
					<coordinates>4.036076069775641,47.54337708388802,0</coordinates>
				</Point>
			</Placemark>
			<Placemark>
				<name>Noyers-sur-Serein</name>
				<styleUrl>#sn_pm_circle3140</styleUrl>
				<Point>
					<coordinates>3.995766,47.69517,0</coordinates>
				</Point>
			</Placemark>
			<Placemark>
				<name>Vallery</name>
				<styleUrl>#sn_pm_circle3140</styleUrl>
				<Point>
					<coordinates>3.050469197689198,48.2406283962566,0</coordinates>
				</Point>
			</Placemark>
			<Placemark>
				<name>Vézelay</name>
				<styleUrl>#sn_pm_circle3140</styleUrl>
				<Point>
					<coordinates>3.741621,47.46343,0</coordinates>
				</Point>
			</Placemark>
		</Folder>
	</Folder>
	<Folder>
		<name>Bretagne</name>
		<Folder>
			<name>22 Côtes-d&apos;Armor</name>
			<open>1</open>
			<Placemark>
				<name>Moncontour</name>
				<styleUrl>#sn_pm_circle3140</styleUrl>
				<Point>
					<coordinates>-2.63263,48.36106,0</coordinates>
				</Point>
			</Placemark>
			<Placemark>
				<name>Mur-de-Bretagne</name>
				<styleUrl>#sn_pm_circle3140</styleUrl>
				<Point>
					<coordinates>-2.986383,48.20109,0</coordinates>
				</Point>
			</Placemark>
			<Placemark>
				<name>Quintin</name>
				<styleUrl>#sn_pm_circle3140</styleUrl>
				<Point>
					<coordinates>-2.910095,48.40331000000001,0</coordinates>
				</Point>
			</Placemark>
			<Placemark>
				<name>Ploumanac&apos;h</name>
				<styleUrl>#sn_pm_circle3140</styleUrl>
				<Point>
					<coordinates>-3.485556,48.83111000000001,0</coordinates>
				</Point>
			</Placemark>
			<Placemark>
				<name>Saint-Cast-le-Guildo</name>
				<styleUrl>#sn_pm_circle3140</styleUrl>
				<Point>
					<coordinates>-2.256588,48.63160999999999,0</coordinates>
				</Point>
			</Placemark>
			<Placemark>
				<name>Tréguier</name>
				<styleUrl>#sn_pm_circle3140</styleUrl>
				<Point>
					<coordinates>-3.224447,48.78776000000001,0</coordinates>
				</Point>
			</Placemark>
		</Folder>
		<Folder>
			<name>29 Finistère</name>
			<open>1</open>
			<Placemark>
				<name>Camaret-sur-Mer</name>
				<styleUrl>#sn_pm_circle3140</styleUrl>
				<Point>
					<coordinates>-4.595168,48.27616,0</coordinates>
				</Point>
			</Placemark>
			<Placemark>
				<name>Concarneau</name>
				<styleUrl>#sn_pm_circle3140</styleUrl>
				<Point>
					<coordinates>-3.921558,47.87237,0</coordinates>
				</Point>
			</Placemark>
			<Placemark>
				<name>Huelgoat</name>
				<styleUrl>#sn_pm_circle3140</styleUrl>
				<Point>
					<coordinates>-3.746753,48.36369,0</coordinates>
				</Point>
			</Placemark>
			<Placemark>
				<name>Le Conquet</name>
				<styleUrl>#sn_pm_circle3140</styleUrl>
				<Point>
					<coordinates>-4.773158,48.35889,0</coordinates>
				</Point>
			</Placemark>
			<Placemark>
				<name>Pointe-du-Raz</name>
				<styleUrl>#sn_pm_circle3140</styleUrl>
				<Point>
					<coordinates>-4.670977,48.04086,0</coordinates>
				</Point>
			</Placemark>
			<Placemark>
				<name>Saint-Thégonnec</name>
				<styleUrl>#sn_pm_circle3140</styleUrl>
				<Point>
					<coordinates>-3.946791000000001,48.51991999999999,0</coordinates>
				</Point>
			</Placemark>
		</Folder>
		<Folder>
			<name>35 Ille-et-Vilaine</name>
			<open>1</open>
			<Placemark>
				<name>Cancale</name>
				<styleUrl>#sn_pm_circle3140</styleUrl>
				<Point>
					<coordinates>-1.849742,48.67492,0</coordinates>
				</Point>
			</Placemark>
			<Placemark>
				<name>Combourg</name>
				<styleUrl>#sn_pm_circle3140</styleUrl>
				<Point>
					<coordinates>-1.748918,48.41103,0</coordinates>
				</Point>
			</Placemark>
			<Placemark>
				<name>Fougères</name>
				<styleUrl>#sn_pm_circle3140</styleUrl>
				<Point>
					<coordinates>-1.202849,48.3524,0</coordinates>
				</Point>
			</Placemark>
			<Placemark>
				<name>Grand-Fougeray</name>
				<styleUrl>#sn_pm_circle3140</styleUrl>
				<Point>
					<coordinates>-1.732762,47.72334,0</coordinates>
				</Point>
			</Placemark>
			<Placemark>
				<name>Paimpont</name>
				<styleUrl>#sn_pm_circle3140</styleUrl>
				<Point>
					<coordinates>-2.171517,48.02137,0</coordinates>
				</Point>
			</Placemark>
			<Placemark>
				<name>Vitré</name>
				<styleUrl>#sn_pm_circle3140</styleUrl>
				<Point>
					<coordinates>-1.212547,48.12309999999999,0</coordinates>
				</Point>
			</Placemark>
		</Folder>
		<Folder>
			<name>44 Loire-Atlantique</name>
			<Placemark>
				<name>Batz-sur-Mer</name>
				<styleUrl>#sn_pm_circle3140</styleUrl>
				<Point>
					<coordinates>-2.479888,47.27764,0</coordinates>
				</Point>
			</Placemark>
			<Placemark>
				<name>Châteaubriant</name>
				<styleUrl>#sn_pm_circle3140</styleUrl>
				<Point>
					<coordinates>-1.378379,47.71893,0</coordinates>
				</Point>
			</Placemark>
			<Placemark>
				<name>Clisson</name>
				<styleUrl>#sn_pm_circle3140</styleUrl>
				<Point>
					<coordinates>-1.277866,47.08860000000001,0</coordinates>
				</Point>
			</Placemark>
			<Placemark>
				<name>Guérande</name>
				<styleUrl>#sn_pm_circle3140</styleUrl>
				<Point>
					<coordinates>-2.429417,47.32782,0</coordinates>
				</Point>
			</Placemark>
			<Placemark>
				<name>Pornic</name>
				<styleUrl>#sn_pm_circle3140</styleUrl>
				<Point>
					<coordinates>-2.102379,47.11585,0</coordinates>
				</Point>
			</Placemark>
			<Placemark>
				<name>Saint-Philbert-de-Grand-Lieu</name>
				<styleUrl>#sn_pm_circle3140</styleUrl>
				<Point>
					<coordinates>-1.640814,47.03887,0</coordinates>
				</Point>
			</Placemark>
		</Folder>
		<Folder>
			<name>56 Morbihan</name>
			<open>1</open>
			<Placemark>
				<name>Belle Ile</name>
				<styleUrl>#sn_pm_circle3140</styleUrl>
				<Point>
					<coordinates>-3.181043,47.33642,0</coordinates>
				</Point>
			</Placemark>
			<Placemark>
				<name>Sainte-Anne-d&apos;Auray</name>
				<styleUrl>#sn_pm_circle3140</styleUrl>
				<Point>
					<coordinates>-2.953206,47.70374,0</coordinates>
				</Point>
			</Placemark>
			<Placemark>
				<styleUrl>#sn_pm_circle3140</styleUrl>
				<LineString>
					<coordinates>
						-2.953206,47.70374,0 -3.181043,47.33642,0 
					</coordinates>
				</LineString>
			</Placemark>
			<Placemark>
				<name>Carnac</name>
				<styleUrl>#sn_pm_circle3140</styleUrl>
				<Point>
					<coordinates>-3.079234000000001,47.58334,0</coordinates>
				</Point>
			</Placemark>
			<Placemark>
				<name>Josselin</name>
				<styleUrl>#sn_pm_circle3140</styleUrl>
				<Point>
					<coordinates>-2.546639,47.95394,0</coordinates>
				</Point>
			</Placemark>
			<Placemark>
				<name>Le Faouët</name>
				<styleUrl>#sn_pm_circle3140</styleUrl>
				<Point>
					<coordinates>-3.490108,48.03183,0</coordinates>
				</Point>
			</Placemark>
			<Placemark>
				<name>Quiberon</name>
				<styleUrl>#sn_pm_circle3140</styleUrl>
				<Point>
					<coordinates>-3.119043000000001,47.48375999999999,0</coordinates>
				</Point>
			</Placemark>
			<Placemark>
				<name>Rochefort-en-Terre</name>
				<styleUrl>#sn_pm_circle3140</styleUrl>
				<Point>
					<coordinates>-2.337274,47.69913,0</coordinates>
				</Point>
			</Placemark>
		</Folder>
	</Folder>
	<Folder>
		<name>Champagne</name>
		<Folder>
			<name>08 Ardennes</name>
			<open>1</open>
			<Placemark>
				<name>Carignan</name>
				<styleUrl>#sn_pm_circle3140</styleUrl>
				<Point>
					<coordinates>5.167745,49.63159,0</coordinates>
				</Point>
			</Placemark>
			<Placemark>
				<name>Fumay</name>
				<styleUrl>#sn_pm_circle3140</styleUrl>
				<Point>
					<coordinates>4.706954,49.99357,0</coordinates>
				</Point>
			</Placemark>
			<Placemark>
				<name>Grandpré</name>
				<styleUrl>#sn_pm_circle3140</styleUrl>
				<Point>
					<coordinates>4.86996,49.34019,0</coordinates>
				</Point>
			</Placemark>
			<Placemark>
				<name>Les Hautes-Rivières</name>
				<styleUrl>#sn_pm_circle3140</styleUrl>
				<Point>
					<coordinates>4.841689,49.88343,0</coordinates>
				</Point>
			</Placemark>
			<Placemark>
				<name>Monthermé</name>
				<styleUrl>#sn_pm_circle3140</styleUrl>
				<Point>
					<coordinates>4.730783,49.88497,0</coordinates>
				</Point>
			</Placemark>
			<Placemark>
				<name>Signy-l&apos;abbaye</name>
				<styleUrl>#sn_pm_circle3140</styleUrl>
				<Point>
					<coordinates>4.421177,49.69769,0</coordinates>
				</Point>
			</Placemark>
		</Folder>
		<Folder>
			<name>10 Aube</name>
			<open>1</open>
			<Placemark>
				<name>Brienne-le-Château</name>
				<styleUrl>#sn_pm_circle3140</styleUrl>
				<Point>
					<coordinates>4.525859,48.39415,0</coordinates>
				</Point>
			</Placemark>
			<Placemark>
				<name>Clairvaux-sur-Aube</name>
				<styleUrl>#sn_pm_circle3140</styleUrl>
				<Point>
					<coordinates>4.792422,48.12026999999999,0</coordinates>
				</Point>
			</Placemark>
			<Placemark>
				<name>Ervy-le-Châtel</name>
				<styleUrl>#sn_pm_circle3140</styleUrl>
				<Point>
					<coordinates>3.911879,48.04052,0</coordinates>
				</Point>
			</Placemark>
			<Placemark>
				<name>Montgueux</name>
				<styleUrl>#sn_pm_circle3140</styleUrl>
				<Point>
					<coordinates>3.958101,48.30548999999999,0</coordinates>
				</Point>
			</Placemark>
			<Placemark>
				<name>Rumilly-lès-Vaudes</name>
				<styleUrl>#sn_pm_circle3140</styleUrl>
				<Point>
					<coordinates>4.218261,48.14563999999999,0</coordinates>
				</Point>
			</Placemark>
			<Placemark>
				<name>Sommeval</name>
				<styleUrl>#sn_pm_circle3140</styleUrl>
				<Point>
					<coordinates>3.966233,48.16511999999999,0</coordinates>
				</Point>
			</Placemark>
			<Placemark>
				<name>La Perrière</name>
				<styleUrl>#sn_pm_circle3140</styleUrl>
				<Point>
					<coordinates>3.90413,48.16652,0</coordinates>
				</Point>
			</Placemark>
			<Placemark>
				<styleUrl>#sn_pm_circle3140</styleUrl>
				<LineString>
					<coordinates>
						3.90413,48.16652,0 3.966233,48.16511999999999,0 
					</coordinates>
				</LineString>
			</Placemark>
		</Folder>
		<Folder>
			<name>51 Marne</name>
			<open>1</open>
			<Placemark>
				<name>Montmort-Lucy</name>
				<styleUrl>#sn_pm_circle3140</styleUrl>
				<Point>
					<coordinates>3.808662,48.92447,0</coordinates>
				</Point>
			</Placemark>
			<Placemark>
				<name>Sézanne</name>
				<styleUrl>#sn_pm_circle3140</styleUrl>
				<Point>
					<coordinates>3.722831,48.72355,0</coordinates>
				</Point>
			</Placemark>
			<Placemark>
				<name>Trois-Fontaines-l&apos;Abbaye</name>
				<styleUrl>#sn_pm_circle3140</styleUrl>
				<Point>
					<coordinates>4.950228,48.71706,0</coordinates>
				</Point>
			</Placemark>
			<Placemark>
				<name>Valmy</name>
				<styleUrl>#sn_pm_circle3140</styleUrl>
				<Point>
					<coordinates>4.772964,49.08398,0</coordinates>
				</Point>
			</Placemark>
			<Placemark>
				<name>Vertus</name>
				<styleUrl>#sn_pm_circle3140</styleUrl>
				<Point>
					<coordinates>4.001152,48.90292999999999,0</coordinates>
				</Point>
			</Placemark>
			<Placemark>
				<name>Verzy</name>
				<styleUrl>#sn_pm_circle3140</styleUrl>
				<Point>
					<coordinates>4.16286,49.14616,0</coordinates>
				</Point>
			</Placemark>
		</Folder>
		<Folder>
			<name>52 Haute-Marne</name>
			<open>1</open>
			<Placemark>
				<name>Auberive</name>
				<styleUrl>#sn_pm_circle3140</styleUrl>
				<Point>
					<coordinates>5.06109,47.78672999999999,0</coordinates>
				</Point>
			</Placemark>
			<Placemark>
				<name>Bourbonne-les-Bains</name>
				<styleUrl>#sn_pm_circle3140</styleUrl>
				<Point>
					<coordinates>5.747647,47.95351,0</coordinates>
				</Point>
			</Placemark>
			<Placemark>
				<name>Joinville</name>
				<styleUrl>#sn_pm_circle3140</styleUrl>
				<Point>
					<coordinates>5.140349,48.44248,0</coordinates>
				</Point>
			</Placemark>
			<Placemark>
				<name>Langres</name>
				<styleUrl>#sn_pm_circle3140</styleUrl>
				<Point>
					<coordinates>5.33411,47.86298000000001,0</coordinates>
				</Point>
			</Placemark>
			<Placemark>
				<name>Montier-en-Der</name>
				<styleUrl>#sn_pm_circle3140</styleUrl>
				<Point>
					<coordinates>4.768934,48.48009,0</coordinates>
				</Point>
			</Placemark>
			<Placemark>
				<name>Vignory</name>
				<styleUrl>#sn_pm_circle3140</styleUrl>
				<Point>
					<coordinates>5.105299,48.27676,0</coordinates>
				</Point>
			</Placemark>
		</Folder>
	</Folder>
	<Folder>
		<name>Comtat Venaissin</name>
		<Folder>
			<name>84 Vaucluse</name>
			<open>1</open>
			<Placemark>
				<name>Brantes</name>
				<styleUrl>#sn_pm_circle3140</styleUrl>
				<Point>
					<coordinates>5.334435,44.19331,0</coordinates>
				</Point>
			</Placemark>
			<Placemark>
				<name>Gordes</name>
				<styleUrl>#sn_pm_circle3140</styleUrl>
				<Point>
					<coordinates>5.201092,43.91121,0</coordinates>
				</Point>
			</Placemark>
			<Placemark>
				<name>Mont Ventoux</name>
				<styleUrl>#sn_pm_circle3140</styleUrl>
				<Point>
					<coordinates>5.283333,44.16667,0</coordinates>
				</Point>
			</Placemark>
			<Placemark>
				<name>Pernes-les-Fontaines</name>
				<styleUrl>#sn_pm_circle3140</styleUrl>
				<Point>
					<coordinates>5.059053,43.99736,0</coordinates>
				</Point>
			</Placemark>
			<Placemark>
				<name>Roussillon</name>
				<styleUrl>#sn_pm_circle3140</styleUrl>
				<Point>
					<coordinates>5.293501,43.90255,0</coordinates>
				</Point>
			</Placemark>
			<Placemark>
				<name>Vaison-la-Romaine</name>
				<styleUrl>#sn_pm_circle3140</styleUrl>
				<Point>
					<coordinates>5.073957,44.24103,0</coordinates>
				</Point>
			</Placemark>
		</Folder>
	</Folder>
	<Folder>
		<name>Comté de Foix</name>
		<Folder>
			<name>09 Ariège</name>
			<open>1</open>
			<Placemark>
				<name>Aulus-les-Bains</name>
				<styleUrl>#sn_pm_circle3140</styleUrl>
				<Point>
					<coordinates>1.337057,42.79106,0</coordinates>
				</Point>
			</Placemark>
			<Placemark>
				<name>Foix</name>
				<styleUrl>#sn_pm_circle3140</styleUrl>
				<Point>
					<coordinates>1.607081,42.96398,0</coordinates>
				</Point>
			</Placemark>
			<Placemark>
				<name>Le Mas d&apos;Azil</name>
				<styleUrl>#sn_pm_circle3140</styleUrl>
				<Point>
					<coordinates>1.361315,43.07962,0</coordinates>
				</Point>
			</Placemark>
			<Placemark>
				<name>Lordat</name>
				<styleUrl>#sn_pm_circle3140</styleUrl>
				<Point>
					<coordinates>1.75136,42.77586,0</coordinates>
				</Point>
			</Placemark>
			<Placemark>
				<name>Mirepoix</name>
				<styleUrl>#sn_pm_circle3140</styleUrl>
				<Point>
					<coordinates>1.875998,43.08634,0</coordinates>
				</Point>
			</Placemark>
			<Placemark>
				<name>Montségur</name>
				<styleUrl>#sn_pm_circle3140</styleUrl>
				<Point>
					<coordinates>1.83418,42.87119,0</coordinates>
				</Point>
			</Placemark>
		</Folder>
	</Folder>
	<Folder>
		<name>Comté de Nice</name>
		<Folder>
			<name>06 Alpes-Maritimes</name>
			<open>1</open>
			<Placemark>
				<name>Gréolières</name>
				<styleUrl>#sn_pm_circle3140</styleUrl>
				<Point>
					<coordinates>6.942929000000001,43.79552,0</coordinates>
				</Point>
			</Placemark>
			<Placemark>
				<name>La Brigue</name>
				<styleUrl>#sn_pm_circle3140</styleUrl>
				<Point>
					<coordinates>7.61518,44.06371,0</coordinates>
				</Point>
			</Placemark>
			<Placemark>
				<name>La Turbie</name>
				<styleUrl>#sn_pm_circle3140</styleUrl>
				<Point>
					<coordinates>7.400836,43.74485,0</coordinates>
				</Point>
			</Placemark>
			<Placemark>
				<name>Peïra-Cava</name>
				<styleUrl>#sn_pm_circle3140</styleUrl>
				<Point>
					<coordinates>7.362613999999999,43.9336,0</coordinates>
				</Point>
			</Placemark>
			<Placemark>
				<name>Saint-Etienne-de-Tinée</name>
				<styleUrl>#sn_pm_circle3140</styleUrl>
				<Point>
					<coordinates>6.924391999999999,44.25431,0</coordinates>
				</Point>
			</Placemark>
			<Placemark>
				<name>Saint-Martin-Vésubie</name>
				<styleUrl>#sn_pm_circle3140</styleUrl>
				<Point>
					<coordinates>7.25649,44.06989,0</coordinates>
				</Point>
			</Placemark>
		</Folder>
	</Folder>
	<Folder>
		<name>Corse</name>
		<Folder>
			<name>20 Corse</name>
			<open>1</open>
			<Placemark>
				<name>Bonifacio</name>
				<styleUrl>#sn_pm_circle3140</styleUrl>
				<Point>
					<coordinates>9.156264,41.38744,0</coordinates>
				</Point>
			</Placemark>
			<Placemark>
				<name>Corte</name>
				<styleUrl>#sn_pm_circle3140</styleUrl>
				<Point>
					<coordinates>9.149440999999999,42.30984,0</coordinates>
				</Point>
			</Placemark>
			<Placemark>
				<name>Nonza</name>
				<styleUrl>#sn_pm_circle3140</styleUrl>
				<Point>
					<coordinates>9.344794,42.78495,0</coordinates>
				</Point>
			</Placemark>
			<Placemark>
				<name>Piana</name>
				<styleUrl>#sn_pm_circle3140</styleUrl>
				<Point>
					<coordinates>8.636379,42.23826,0</coordinates>
				</Point>
			</Placemark>
			<Placemark>
				<name>Piedicroce</name>
				<styleUrl>#sn_pm_circle3140</styleUrl>
				<Point>
					<coordinates>9.367983000000001,42.37479,0</coordinates>
				</Point>
			</Placemark>
			<Placemark>
				<name>Zonza</name>
				<styleUrl>#sn_pm_circle3140</styleUrl>
				<Point>
					<coordinates>9.17075,41.74938,0</coordinates>
				</Point>
			</Placemark>
		</Folder>
	</Folder>
	<Folder>
		<name>Dauphiné</name>
		<Folder>
			<name>05 Hautes-Alpes</name>
			<open>1</open>
			<Placemark>
				<name>Abbaye de Boscodon</name>
				<styleUrl>#sn_pm_circle3140</styleUrl>
				<Point>
					<coordinates>6.455589,44.50041,0</coordinates>
				</Point>
			</Placemark>
			<Placemark>
				<name>Col d&apos;Izoard</name>
				<styleUrl>#sn_pm_circle3140</styleUrl>
				<Point>
					<coordinates>6.735093,44.81995,0</coordinates>
				</Point>
			</Placemark>
			<Placemark>
				<name>Col du Lautaret</name>
				<styleUrl>#sn_pm_circle3140</styleUrl>
				<Point>
					<coordinates>6.405098999999999,45.03467000000001,0</coordinates>
				</Point>
			</Placemark>
			<Placemark>
				<name>Le Gioberney</name>
				<styleUrl>#sn_pm_circle3140</styleUrl>
				<Point>
					<coordinates>6.281502613996743,44.84058557623499,0</coordinates>
				</Point>
			</Placemark>
			<Placemark>
				<name>Saint-Etienne-en-Dévoluy</name>
				<styleUrl>#sn_pm_circle3140</styleUrl>
				<Point>
					<coordinates>5.941374999999999,44.69332,0</coordinates>
				</Point>
			</Placemark>
			<Placemark>
				<name>Saint-Véran</name>
				<styleUrl>#sn_pm_circle3140</styleUrl>
				<Point>
					<coordinates>6.866088000000001,44.69982,0</coordinates>
				</Point>
			</Placemark>
		</Folder>
		<Folder>
			<name>26 Drôme</name>
			<open>1</open>
			<Placemark>
				<name>Bathernay</name>
				<styleUrl>#sn_pm_circle3140</styleUrl>
				<Point>
					<coordinates>4.995703,45.18047,0</coordinates>
				</Point>
			</Placemark>
			<Placemark>
				<name>Col de la Machine</name>
				<styleUrl>#sn_pm_circle3140</styleUrl>
				<Point>
					<coordinates>5.334162,44.97569,0</coordinates>
				</Point>
			</Placemark>
			<Placemark>
				<name>Col du Rousset</name>
				<styleUrl>#sn_pm_circle3140</styleUrl>
				<Point>
					<coordinates>5.06111,44.45465,0</coordinates>
				</Point>
			</Placemark>
			<Placemark>
				<name>Grignan</name>
				<styleUrl>#sn_pm_circle3140</styleUrl>
				<Point>
					<coordinates>4.908028,44.42001,0</coordinates>
				</Point>
			</Placemark>
			<Placemark>
				<name>La Motte Chalançon</name>
				<styleUrl>#sn_pm_circle3140</styleUrl>
				<Point>
					<coordinates>5.380777,44.48523,0</coordinates>
				</Point>
			</Placemark>
			<Placemark>
				<name>Montbrun-les-Bains</name>
				<styleUrl>#sn_pm_circle3140</styleUrl>
				<Point>
					<coordinates>5.443654,44.1754,0</coordinates>
				</Point>
			</Placemark>
		</Folder>
		<Folder>
			<name>38 Isère</name>
			<open>1</open>
			<Placemark>
				<name>Notre-Dame de La Salette</name>
				<open>1</open>
				<LookAt>
					<longitude>5.978366630296536</longitude>
					<latitude>44.85853845331724</latitude>
					<altitude>0</altitude>
					<heading>0.003024722797440311</heading>
					<tilt>60.00440928044496</tilt>
					<range>385.7983265502434</range>
					<gx:altitudeMode>relativeToSeaFloor</gx:altitudeMode>
				</LookAt>
				<styleUrl>#sn_pm_circle3140</styleUrl>
				<Point>
					<coordinates>5.978366630296536,44.85853845331724,0</coordinates>
				</Point>
			</Placemark>
			<Placemark>
				<name>Saint-Antoine-l&apos;Abbaye</name>
				<open>1</open>
				<Camera>
					<longitude>5.221793480122419</longitude>
					<latitude>45.17222384638649</latitude>
					<altitude>1003.630557882386</altitude>
					<heading>2.583135982608336</heading>
					<tilt>12.74072998359539</tilt>
					<roll>1.51295054941307</roll>
					<gx:altitudeMode>relativeToSeaFloor</gx:altitudeMode>
				</Camera>
				<styleUrl>#sn_pm_circle3140</styleUrl>
				<Point>
					<coordinates>5.217578585910307,45.17495786009783,0</coordinates>
				</Point>
			</Placemark>
			<Placemark>
				<name>Crémieu</name>
				<styleUrl>#sn_pm_circle3140</styleUrl>
				<Point>
					<coordinates>5.250766,45.72420000000001,0</coordinates>
				</Point>
			</Placemark>
			<Placemark>
				<name>La Bérarde</name>
				<styleUrl>#sn_pm_circle3140</styleUrl>
				<Point>
					<coordinates>6.291205,44.93361,0</coordinates>
				</Point>
			</Placemark>
			<Placemark>
				<name>Laffrey</name>
				<styleUrl>#sn_pm_circle3140</styleUrl>
				<Point>
					<coordinates>5.773180999999999,45.02415,0</coordinates>
				</Point>
			</Placemark>
			<Placemark>
				<name>Couvent de la Grande Chartreuse</name>
				<styleUrl>#sn_pm_circle3140</styleUrl>
				<Point>
					<coordinates>5.791587102086075,45.36133930144098,0</coordinates>
				</Point>
			</Placemark>
		</Folder>
	</Folder>
	<Folder>
		<name>Flandres</name>
		<Folder>
			<name>59 Nord</name>
			<Placemark>
				<name>Bavay</name>
				<styleUrl>#sn_pm_circle3140</styleUrl>
				<Point>
					<coordinates>3.791744,50.29715,0</coordinates>
				</Point>
			</Placemark>
			<Placemark>
				<name>Bergues</name>
				<styleUrl>#sn_pm_circle3140</styleUrl>
				<Point>
					<coordinates>2.432584,50.96856,0</coordinates>
				</Point>
			</Placemark>
			<Placemark>
				<name>Douai</name>
				<styleUrl>#sn_pm_circle3140</styleUrl>
				<Point>
					<coordinates>3.082494,50.36753999999999,0</coordinates>
				</Point>
			</Placemark>
			<Placemark>
				<name>Mont des Cats</name>
				<styleUrl>#sn_pm_circle3140</styleUrl>
				<Point>
					<coordinates>2.668715,50.78179,0</coordinates>
				</Point>
			</Placemark>
			<Placemark>
				<name>Saint-Amand-les-Eaux</name>
				<styleUrl>#sn_pm_circle3140</styleUrl>
				<Point>
					<coordinates>3.427690999999999,50.44801999999999,0</coordinates>
				</Point>
			</Placemark>
			<Placemark>
				<name>Trélon</name>
				<styleUrl>#sn_pm_circle3140</styleUrl>
				<Point>
					<coordinates>4.103549,50.05901,0</coordinates>
				</Point>
			</Placemark>
		</Folder>
	</Folder>
	<Folder>
		<name>Franche-Comté</name>
		<Folder>
			<name>25 Doubs</name>
			<open>1</open>
			<Placemark>
				<name>Les Hôpitaux Neufs</name>
				<styleUrl>#sn_pm_circle3140</styleUrl>
				<Point>
					<coordinates>6.373419,46.77721,0</coordinates>
				</Point>
			</Placemark>
			<Placemark>
				<name>Montbenoît</name>
				<styleUrl>#sn_pm_circle3140</styleUrl>
				<Point>
					<coordinates>6.461588,46.99273,0</coordinates>
				</Point>
			</Placemark>
			<Placemark>
				<name>Nans-sous-Sainte-Anne</name>
				<styleUrl>#sn_pm_circle3140</styleUrl>
				<Point>
					<coordinates>6.000158,46.97769,0</coordinates>
				</Point>
			</Placemark>
			<Placemark>
				<name>Ouhans</name>
				<styleUrl>#sn_pm_circle3140</styleUrl>
				<Point>
					<coordinates>6.293659000000001,46.9986,0</coordinates>
				</Point>
			</Placemark>
			<Placemark>
				<name>Saint-Point-du-Lac</name>
				<styleUrl>#sn_pm_circle3140</styleUrl>
				<Point>
					<coordinates>6.322856,46.82189999999999,0</coordinates>
				</Point>
			</Placemark>
			<Placemark>
				<name>Saut du Doubs</name>
				<styleUrl>#sn_pm_circle3140</styleUrl>
				<Point>
					<coordinates>6.712866,47.08736,0</coordinates>
				</Point>
			</Placemark>
		</Folder>
		<Folder>
			<name>39 Jura</name>
			<open>1</open>
			<Placemark>
				<name>Baume-les-Messieurs</name>
				<styleUrl>#sn_pm_circle3140</styleUrl>
				<Point>
					<coordinates>5.648177,46.70607,0</coordinates>
				</Point>
			</Placemark>
			<Placemark>
				<name>Château-des-Prés</name>
				<styleUrl>#sn_pm_circle3140</styleUrl>
				<Point>
					<coordinates>5.898275999999999,46.50003,0</coordinates>
				</Point>
			</Placemark>
			<Placemark>
				<name>Les Bouchoux</name>
				<styleUrl>#sn_pm_circle3140</styleUrl>
				<Point>
					<coordinates>5.817269999999999,46.29711,0</coordinates>
				</Point>
			</Placemark>
			<Placemark>
				<name>Nozeroy</name>
				<styleUrl>#sn_pm_circle3140</styleUrl>
				<Point>
					<coordinates>6.038644000000001,46.77558,0</coordinates>
				</Point>
			</Placemark>
			<Placemark>
				<name>Orgelet</name>
				<styleUrl>#sn_pm_circle3140</styleUrl>
				<Point>
					<coordinates>5.611188,46.52167,0</coordinates>
				</Point>
			</Placemark>
			<Placemark>
				<name>Salins-les-Bains</name>
				<styleUrl>#sn_pm_circle3140</styleUrl>
				<Point>
					<coordinates>5.879909999999999,46.9432,0</coordinates>
				</Point>
			</Placemark>
		</Folder>
		<Folder>
			<name>70 Haute-Saône</name>
			<open>1</open>
			<Placemark>
				<name>Blondefontaine</name>
				<styleUrl>#sn_pm_circle3140</styleUrl>
				<Point>
					<coordinates>5.86697,47.87835000000001,0</coordinates>
				</Point>
			</Placemark>
			<Placemark>
				<name>Luxeuil-les-Bains</name>
				<styleUrl>#sn_pm_circle3140</styleUrl>
				<Point>
					<coordinates>6.380136,47.81784,0</coordinates>
				</Point>
			</Placemark>
			<Placemark>
				<name>Montigny-lès-Cherlieu</name>
				<styleUrl>#sn_pm_circle3140</styleUrl>
				<Point>
					<coordinates>5.811587,47.79932,0</coordinates>
				</Point>
			</Placemark>
			<Placemark>
				<name>Pesmes</name>
				<styleUrl>#sn_pm_circle3140</styleUrl>
				<Point>
					<coordinates>5.566097,47.27975,0</coordinates>
				</Point>
			</Placemark>
			<Placemark>
				<name>Servance</name>
				<styleUrl>#sn_pm_circle3140</styleUrl>
				<Point>
					<coordinates>6.68555,47.81742,0</coordinates>
				</Point>
			</Placemark>
			<Placemark>
				<name>Vesoul</name>
				<styleUrl>#sn_pm_circle3140</styleUrl>
				<Point>
					<coordinates>6.155904,47.62347,0</coordinates>
				</Point>
			</Placemark>
		</Folder>
	</Folder>
	<Folder>
		<name>Gascogne</name>
		<Folder>
			<name>32 Gers</name>
			<open>1</open>
			<Placemark>
				<name>Bassoues</name>
				<styleUrl>#sn_pm_circle3140</styleUrl>
				<Point>
					<coordinates>0.2479943,43.57906,0</coordinates>
				</Point>
			</Placemark>
			<Placemark>
				<name>Cazaubon</name>
				<styleUrl>#sn_pm_circle3140</styleUrl>
				<Point>
					<coordinates>-0.0703168,43.93443,0</coordinates>
				</Point>
			</Placemark>
			<Placemark>
				<name>Gimont</name>
				<styleUrl>#sn_pm_circle3140</styleUrl>
				<Point>
					<coordinates>0.8770041,43.62754,0</coordinates>
				</Point>
			</Placemark>
			<Placemark>
				<name>Larressingle</name>
				<styleUrl>#sn_pm_circle3140</styleUrl>
				<Point>
					<coordinates>0.3103824,43.94415,0</coordinates>
				</Point>
			</Placemark>
			<Placemark>
				<name>Lectoure</name>
				<styleUrl>#sn_pm_circle3140</styleUrl>
				<Point>
					<coordinates>0.6198051999999999,43.934,0</coordinates>
				</Point>
			</Placemark>
			<Placemark>
				<name>Simorre</name>
				<styleUrl>#sn_pm_circle3140</styleUrl>
				<Point>
					<coordinates>0.7361266,43.4506,0</coordinates>
				</Point>
			</Placemark>
		</Folder>
		<Folder>
			<name>40 Landes</name>
			<Placemark>
				<name>Hagetmau</name>
				<styleUrl>#sn_pm_circle3140</styleUrl>
				<Point>
					<coordinates>-0.591268,43.65874,0</coordinates>
				</Point>
			</Placemark>
			<Placemark>
				<name>Hossegor</name>
				<styleUrl>#sn_pm_circle3140</styleUrl>
				<Point>
					<coordinates>-1.395201,43.66334,0</coordinates>
				</Point>
			</Placemark>
			<Placemark>
				<name>Labastide d&apos;Armagnac</name>
				<styleUrl>#sn_pm_circle3140</styleUrl>
				<Point>
					<coordinates>-0.1867944,43.96973,0</coordinates>
				</Point>
			</Placemark>
			<Placemark>
				<name>Mimizan</name>
				<styleUrl>#sn_pm_circle3140</styleUrl>
				<Point>
					<coordinates>-1.229082,44.20263,0</coordinates>
				</Point>
			</Placemark>
			<Placemark>
				<name>Sabres</name>
				<styleUrl>#sn_pm_circle3140</styleUrl>
				<Point>
					<coordinates>-0.7402672,44.1484,0</coordinates>
				</Point>
			</Placemark>
			<Placemark>
				<name>Sorde l&apos;Abbaye</name>
				<styleUrl>#sn_pm_circle3140</styleUrl>
				<Point>
					<coordinates>-1.056145,43.5299,0</coordinates>
				</Point>
			</Placemark>
		</Folder>
		<Folder>
			<name>65 Hautes-Pyrénées</name>
			<open>1</open>
			<Placemark>
				<name>Mauvezin</name>
				<styleUrl>#sn_pm_circle3140</styleUrl>
				<Point>
					<coordinates>0.877117751881995,43.73049408800322,0</coordinates>
				</Point>
			</Placemark>
			<Placemark>
				<name>Col du Tourmalet</name>
				<styleUrl>#sn_pm_circle3140</styleUrl>
				<Point>
					<coordinates>0.1448994,42.9082,0</coordinates>
				</Point>
			</Placemark>
			<Placemark>
				<name>Gavarnie</name>
				<styleUrl>#sn_pm_circle3140</styleUrl>
				<Point>
					<coordinates>-0.0101497,42.73507,0</coordinates>
				</Point>
			</Placemark>
			<Placemark>
				<name>Lac d&apos;Orédon</name>
				<styleUrl>#sn_pm_circle3140</styleUrl>
				<Point>
					<coordinates>0.1617882,42.82528,0</coordinates>
				</Point>
			</Placemark>
			<Placemark>
				<name>Saint-Sever-de-Rustan</name>
				<styleUrl>#sn_pm_circle3140</styleUrl>
				<Point>
					<coordinates>0.2250309349221991,43.35162518936613,0</coordinates>
				</Point>
			</Placemark>
			<Placemark>
				<name>Pont d&apos;Espagne</name>
				<styleUrl>#sn_pm_circle3140</styleUrl>
				<Point>
					<coordinates>-0.1398927,42.85123,0</coordinates>
				</Point>
			</Placemark>
		</Folder>
		<Folder>
			<name>82 Tarn-et-Garonne</name>
			<open>1</open>
			<Placemark>
				<name>Auvillar</name>
				<styleUrl>#sn_pm_circle3140</styleUrl>
				<Point>
					<coordinates>0.8996709000000001,44.06949,0</coordinates>
				</Point>
			</Placemark>
			<Placemark>
				<name>Caylus</name>
				<styleUrl>#sn_pm_circle3140</styleUrl>
				<Point>
					<coordinates>1.773166,44.23681,0</coordinates>
				</Point>
			</Placemark>
			<Placemark>
				<name>Lauzerte</name>
				<styleUrl>#sn_pm_circle3140</styleUrl>
				<Point>
					<coordinates>1.139225,44.25526,0</coordinates>
				</Point>
			</Placemark>
			<Placemark>
				<name>Moissac</name>
				<styleUrl>#sn_pm_circle3140</styleUrl>
				<Point>
					<coordinates>1.084942,44.10402,0</coordinates>
				</Point>
			</Placemark>
			<Placemark>
				<name>Monpezat-de-Quercy</name>
				<styleUrl>#sn_pm_circle3140</styleUrl>
				<Point>
					<coordinates>1.479058,44.23656,0</coordinates>
				</Point>
			</Placemark>
			<Placemark>
				<name>Saint-Antoinin-Noble-Val</name>
				<styleUrl>#sn_pm_circle3140</styleUrl>
				<Point>
					<coordinates>1.753289,44.1524,0</coordinates>
				</Point>
			</Placemark>
		</Folder>
	</Folder>
	<Folder>
		<name>Guyenne</name>
		<Folder>
			<name>12 Aveyron</name>
			<open>1</open>
			<Placemark>
				<name>Bozouls</name>
				<styleUrl>#sn_pm_circle3140</styleUrl>
				<Point>
					<coordinates>2.722757420995869,44.471712109003,0</coordinates>
				</Point>
			</Placemark>
			<Placemark>
				<name>Conques</name>
				<styleUrl>#sn_pm_circle3140</styleUrl>
				<Point>
					<coordinates>2.397208,44.5995,0</coordinates>
				</Point>
			</Placemark>
			<Placemark>
				<name>Le Maubert</name>
				<styleUrl>#sn_pm_circle3140</styleUrl>
				<Point>
					<coordinates>3.198328,44.14706,0</coordinates>
				</Point>
			</Placemark>
			<Placemark>
				<name>Melvieu</name>
				<styleUrl>#sn_pm_circle3140</styleUrl>
				<Point>
					<coordinates>2.791819,44.04651,0</coordinates>
				</Point>
			</Placemark>
			<Placemark>
				<name>Najac</name>
				<styleUrl>#sn_pm_circle3140</styleUrl>
				<Point>
					<coordinates>1.97874,44.21982,0</coordinates>
				</Point>
			</Placemark>
			<Placemark>
				<name>Roquefort</name>
				<styleUrl>#sn_pm_circle3140</styleUrl>
				<Point>
					<coordinates>2.990375,43.97577,0</coordinates>
				</Point>
			</Placemark>
		</Folder>
		<Folder>
			<name>24 Dordogne</name>
			<open>1</open>
			<Placemark>
				<name>Brantôme</name>
				<styleUrl>#sn_pm_circle3140</styleUrl>
				<Point>
					<coordinates>0.6471479,45.36429,0</coordinates>
				</Point>
			</Placemark>
			<Placemark>
				<name>Domme</name>
				<styleUrl>#sn_pm_circle3140</styleUrl>
				<Point>
					<coordinates>1.214633,44.80292,0</coordinates>
				</Point>
			</Placemark>
			<Placemark>
				<name>Hautefort</name>
				<styleUrl>#sn_pm_circle3140</styleUrl>
				<Point>
					<coordinates>1.14866,45.25918,0</coordinates>
				</Point>
			</Placemark>
			<Placemark>
				<name>Les Eyzies-de-Tayac</name>
				<styleUrl>#sn_pm_circle3140</styleUrl>
				<Point>
					<coordinates>1.015952,44.93455,0</coordinates>
				</Point>
			</Placemark>
			<Placemark>
				<name>Monbazillac</name>
				<styleUrl>#sn_pm_circle3140</styleUrl>
				<Point>
					<coordinates>0.4914062,44.79384,0</coordinates>
				</Point>
			</Placemark>
			<Placemark>
				<name>Monpazier</name>
				<styleUrl>#sn_pm_circle3140</styleUrl>
				<Point>
					<coordinates>0.8943222000000001,44.68257,0</coordinates>
				</Point>
			</Placemark>
		</Folder>
		<Folder>
			<name>33 Gironde</name>
			<open>1</open>
			<Placemark>
				<name>Bazas</name>
				<styleUrl>#sn_pm_circle3140</styleUrl>
				<Point>
					<coordinates>-0.213442,44.43149,0</coordinates>
				</Point>
			</Placemark>
			<Placemark>
				<name>Blaye</name>
				<styleUrl>#sn_pm_circle3140</styleUrl>
				<Point>
					<coordinates>-0.661439,45.12907,0</coordinates>
				</Point>
			</Placemark>
			<Placemark>
				<name>Le Pyla-sur-Mer</name>
				<styleUrl>#sn_pm_circle3140</styleUrl>
				<Point>
					<coordinates>-1.201736,44.63432,0</coordinates>
				</Point>
			</Placemark>
			<Placemark>
				<name>Sainte-Croix-du-Mont</name>
				<styleUrl>#sn_pm_circle3140</styleUrl>
				<Point>
					<coordinates>-0.2812328,44.59341,0</coordinates>
				</Point>
			</Placemark>
			<Placemark>
				<name>Cadillac</name>
				<styleUrl>#sn_pm_circle3140</styleUrl>
				<Point>
					<coordinates>-0.321461,44.63689,0</coordinates>
				</Point>
			</Placemark>
			<Placemark>
				<styleUrl>#sn_pm_circle3140</styleUrl>
				<LineString>
					<coordinates>
						-0.321461,44.63689,0 -0.2812328,44.59341,0 
					</coordinates>
				</LineString>
			</Placemark>
			<Placemark>
				<name>Saint-Emilion</name>
				<styleUrl>#sn_pm_circle3140</styleUrl>
				<Point>
					<coordinates>-0.1554754,44.89601,0</coordinates>
				</Point>
			</Placemark>
			<Placemark>
				<name>Vertheuil</name>
				<styleUrl>#sn_pm_circle3140</styleUrl>
				<Point>
					<coordinates>-0.8345531,45.25021,0</coordinates>
				</Point>
			</Placemark>
		</Folder>
		<Folder>
			<name>46 Lot</name>
			<open>1</open>
			<Placemark>
				<name>Figeac</name>
				<styleUrl>#sn_pm_circle3140</styleUrl>
				<Point>
					<coordinates>2.037963,44.60799,0</coordinates>
				</Point>
			</Placemark>
			<Placemark>
				<name>Luzech</name>
				<styleUrl>#sn_pm_circle3140</styleUrl>
				<Point>
					<coordinates>1.286851,44.47829,0</coordinates>
				</Point>
			</Placemark>
			<Placemark>
				<name>Martel</name>
				<styleUrl>#sn_pm_circle3140</styleUrl>
				<Point>
					<coordinates>1.609837,44.93707,0</coordinates>
				</Point>
			</Placemark>
			<Placemark>
				<name>Padirac</name>
				<styleUrl>#sn_pm_circle3140</styleUrl>
				<Point>
					<coordinates>1.753123,44.84166,0</coordinates>
				</Point>
			</Placemark>
			<Placemark>
				<name>Rocamadour</name>
				<styleUrl>#sn_pm_circle3140</styleUrl>
				<Point>
					<coordinates>1.618353,44.79952,0</coordinates>
				</Point>
			</Placemark>
			<Placemark>
				<name>Saint-Cirq-Lapopie</name>
				<styleUrl>#sn_pm_circle3140</styleUrl>
				<Point>
					<coordinates>1.670467,44.46462,0</coordinates>
				</Point>
			</Placemark>
		</Folder>
		<Folder>
			<name>47 Lot-et-Garonne</name>
			<open>1</open>
			<Placemark>
				<name>Duras</name>
				<styleUrl>#sn_pm_circle3140</styleUrl>
				<Point>
					<coordinates>0.1820709,44.67646,0</coordinates>
				</Point>
			</Placemark>
			<Placemark>
				<name>Monclar</name>
				<styleUrl>#sn_pm_circle3140</styleUrl>
				<Point>
					<coordinates>0.5264483,44.44661,0</coordinates>
				</Point>
			</Placemark>
			<Placemark>
				<name>Nérac</name>
				<styleUrl>#sn_pm_circle3140</styleUrl>
				<Point>
					<coordinates>0.3450835,44.13432,0</coordinates>
				</Point>
			</Placemark>
			<Placemark>
				<name>Penne d&apos;Agenais</name>
				<styleUrl>#sn_pm_circle3140</styleUrl>
				<Point>
					<coordinates>0.8204692,44.39021,0</coordinates>
				</Point>
			</Placemark>
			<Placemark>
				<name>Saint-Maurin</name>
				<styleUrl>#sn_pm_circle3140</styleUrl>
				<Point>
					<coordinates>0.8919942999999999,44.20797,0</coordinates>
				</Point>
			</Placemark>
			<Placemark>
				<name>Villeréal</name>
				<styleUrl>#sn_pm_circle3140</styleUrl>
				<Point>
					<coordinates>0.7438315,44.63731,0</coordinates>
				</Point>
			</Placemark>
		</Folder>
	</Folder>
	<Folder>
		<name>Ile-de-France</name>
		<Folder>
			<name>02 Aisne</name>
			<open>1</open>
			<Placemark>
				<name>Coucy-le-Château</name>
				<styleUrl>#sn_pm_circle3140</styleUrl>
				<Point>
					<coordinates>3.32411,49.51933,0</coordinates>
				</Point>
			</Placemark>
			<Placemark>
				<name>Fère-en-Tardenois</name>
				<styleUrl>#sn_pm_circle3140</styleUrl>
				<Point>
					<coordinates>3.51384,49.20003,0</coordinates>
				</Point>
			</Placemark>
			<Placemark>
				<name>Guise</name>
				<styleUrl>#sn_pm_circle3140</styleUrl>
				<Point>
					<coordinates>3.628017,49.89973,0</coordinates>
				</Point>
			</Placemark>
			<Placemark>
				<name>La Ferté-Milon</name>
				<styleUrl>#sn_pm_circle3140</styleUrl>
				<Point>
					<coordinates>3.125447,49.17739,0</coordinates>
				</Point>
			</Placemark>
			<Placemark>
				<name>Laon</name>
				<styleUrl>#sn_pm_circle3140</styleUrl>
				<Point>
					<coordinates>3.624245,49.56475,0</coordinates>
				</Point>
			</Placemark>
			<Placemark>
				<name>Longpont</name>
				<styleUrl>#sn_pm_circle3140</styleUrl>
				<Point>
					<coordinates>3.219766,49.27320999999999,0</coordinates>
				</Point>
			</Placemark>
		</Folder>
		<Folder>
			<name>60 Oise</name>
			<open>1</open>
			<Placemark>
				<name>Chaumont-en-Vexin</name>
				<styleUrl>#sn_pm_circle3140</styleUrl>
				<Point>
					<coordinates>1.882695,49.26485,0</coordinates>
				</Point>
			</Placemark>
			<Placemark>
				<name>Ermenonville</name>
				<styleUrl>#sn_pm_circle3140</styleUrl>
				<Point>
					<coordinates>2.693657,49.12559,0</coordinates>
				</Point>
			</Placemark>
			<Placemark>
				<name>Noyon</name>
				<styleUrl>#sn_pm_circle3140</styleUrl>
				<Point>
					<coordinates>3.003258,49.58241,0</coordinates>
				</Point>
			</Placemark>
			<Placemark>
				<name>Pierrefonds</name>
				<styleUrl>#sn_pm_circle3140</styleUrl>
				<Point>
					<coordinates>2.977925,49.34940999999999,0</coordinates>
				</Point>
			</Placemark>
			<Placemark>
				<name>Saint-Germer-de-Fly</name>
				<styleUrl>#sn_pm_circle3140</styleUrl>
				<Point>
					<coordinates>1.781705,49.44358,0</coordinates>
				</Point>
			</Placemark>
			<Placemark>
				<name>Songeons</name>
				<styleUrl>#sn_pm_circle3140</styleUrl>
				<Point>
					<coordinates>1.853532,49.54921,0</coordinates>
				</Point>
			</Placemark>
		</Folder>
		<Folder>
			<name>77 Seine-et-Marne</name>
			<open>1</open>
			<Placemark>
				<name>Blandy-les-Tours</name>
				<styleUrl>#sn_pm_circle3140</styleUrl>
				<Point>
					<coordinates>2.78149,48.56649999999999,0</coordinates>
				</Point>
			</Placemark>
			<Placemark>
				<name>Château-Landon</name>
				<styleUrl>#sn_pm_circle3140</styleUrl>
				<Point>
					<coordinates>2.702204,48.1491,0</coordinates>
				</Point>
			</Placemark>
			<Placemark>
				<name>Donnemarie-Dontilly</name>
				<styleUrl>#sn_pm_circle3140</styleUrl>
				<Point>
					<coordinates>3.132513,48.47674,0</coordinates>
				</Point>
			</Placemark>
			<Placemark>
				<name>Jouarre</name>
				<styleUrl>#sn_pm_circle3140</styleUrl>
				<Point>
					<coordinates>3.130447,48.92725,0</coordinates>
				</Point>
			</Placemark>
			<Placemark>
				<name>Moret-sur-Loing</name>
				<styleUrl>#sn_pm_circle3140</styleUrl>
				<Point>
					<coordinates>2.818388,48.37275,0</coordinates>
				</Point>
			</Placemark>
			<Placemark>
				<name>Provins</name>
				<styleUrl>#sn_pm_circle3140</styleUrl>
				<Point>
					<coordinates>3.286947,48.56287,0</coordinates>
				</Point>
			</Placemark>
		</Folder>
		<Folder>
			<name>78 Yvelines</name>
			<open>1</open>
			<Placemark>
				<name>Dampierre-en-Yvelines</name>
				<styleUrl>#sn_pm_circle3140</styleUrl>
				<Point>
					<coordinates>1.986191,48.70533999999999,0</coordinates>
				</Point>
			</Placemark>
			<Placemark>
				<name>Montfort-l&apos;Amaury</name>
				<styleUrl>#sn_pm_circle3140</styleUrl>
				<Point>
					<coordinates>1.807609,48.77669,0</coordinates>
				</Point>
			</Placemark>
		</Folder>
		<Folder>
			<name>91 Essonne</name>
			<open>1</open>
			<Placemark>
				<name>Milly-la-Forêt</name>
				<styleUrl>#sn_pm_circle3140</styleUrl>
				<Point>
					<coordinates>2.4704,48.40318,0</coordinates>
				</Point>
			</Placemark>
			<Placemark>
				<name>Saint-Sulpice-de-Favières</name>
				<styleUrl>#sn_pm_circle3140</styleUrl>
				<Point>
					<coordinates>2.179246,48.5414,0</coordinates>
				</Point>
			</Placemark>
		</Folder>
		<Folder>
			<name>95 Val-d&apos;Oise</name>
			<open>1</open>
			<Placemark>
				<name>L&apos;Isle-Adam</name>
				<styleUrl>#sn_pm_circle3140</styleUrl>
				<Point>
					<coordinates>2.217277,49.11214,0</coordinates>
				</Point>
			</Placemark>
			<Placemark>
				<name>Vétheuil</name>
				<styleUrl>#sn_pm_circle3140</styleUrl>
				<Point>
					<coordinates>1.700613,49.06486,0</coordinates>
				</Point>
			</Placemark>
		</Folder>
	</Folder>
	<Folder>
		<name>Languedoc</name>
		<Folder>
			<name>07 Ardèche</name>
			<open>1</open>
			<Placemark>
				<name>Gerbier de Jonc</name>
				<styleUrl>#sn_pm_circle3140</styleUrl>
				<Point>
					<coordinates>4.222021,44.84187,0</coordinates>
				</Point>
			</Placemark>
			<Placemark>
				<name>Lac-d&apos;Issarlès</name>
				<styleUrl>#sn_pm_circle3140</styleUrl>
				<Point>
					<coordinates>4.061058,44.82108,0</coordinates>
				</Point>
			</Placemark>
			<Placemark>
				<name>Les Vans</name>
				<styleUrl>#sn_pm_circle3140</styleUrl>
				<Point>
					<coordinates>4.132926,44.40404,0</coordinates>
				</Point>
			</Placemark>
			<Placemark>
				<name>Loubaresse</name>
				<styleUrl>#sn_pm_circle3140</styleUrl>
				<Point>
					<coordinates>4.050103,44.60021,0</coordinates>
				</Point>
			</Placemark>
			<Placemark>
				<name>Saint-Agrève</name>
				<styleUrl>#sn_pm_circle3140</styleUrl>
				<Point>
					<coordinates>4.39682,45.00951999999999,0</coordinates>
				</Point>
			</Placemark>
			<Placemark>
				<name>Vallon-Pont-d&apos;Arc</name>
				<styleUrl>#sn_pm_circle3140</styleUrl>
				<Point>
					<coordinates>4.394846,44.40696,0</coordinates>
				</Point>
			</Placemark>
		</Folder>
		<Folder>
			<name>11 Aude</name>
			<open>1</open>
			<Placemark>
				<name>Duilhac-sous-Peyrepertuse</name>
				<styleUrl>#sn_pm_circle3140</styleUrl>
				<Point>
					<coordinates>2.566179,42.86335,0</coordinates>
				</Point>
			</Placemark>
			<Placemark>
				<name>La Fajolle</name>
				<styleUrl>#sn_pm_circle3140</styleUrl>
				<Point>
					<coordinates>1.963981,42.77171,0</coordinates>
				</Point>
			</Placemark>
			<Placemark>
				<name>Lagrasse</name>
				<styleUrl>#sn_pm_circle3140</styleUrl>
				<Point>
					<coordinates>2.619735,43.09047,0</coordinates>
				</Point>
			</Placemark>
			<Placemark>
				<name>Lastours</name>
				<styleUrl>#sn_pm_circle3140</styleUrl>
				<Point>
					<coordinates>2.380394,43.33176,0</coordinates>
				</Point>
			</Placemark>
			<Placemark>
				<name>Saint-Hilaire</name>
				<styleUrl>#sn_pm_circle3140</styleUrl>
				<Point>
					<coordinates>2.308892,43.09345,0</coordinates>
				</Point>
			</Placemark>
			<Placemark>
				<name>Saissac</name>
				<styleUrl>#sn_pm_circle3140</styleUrl>
				<Point>
					<coordinates>2.172674,43.35952,0</coordinates>
				</Point>
			</Placemark>
		</Folder>
		<Folder>
			<name>30 Gard</name>
			<open>1</open>
			<Placemark>
				<name>Anduze</name>
				<styleUrl>#sn_pm_circle3140</styleUrl>
				<Point>
					<coordinates>3.985142,44.05507,0</coordinates>
				</Point>
			</Placemark>
			<Placemark>
				<name>Blandas</name>
				<styleUrl>#sn_pm_circle3140</styleUrl>
				<Point>
					<coordinates>3.512595,43.91184,0</coordinates>
				</Point>
			</Placemark>
			<Placemark>
				<name>Navacelles</name>
				<styleUrl>#sn_pm_circle3140</styleUrl>
				<Point>
					<coordinates>3.511622,43.89429,0</coordinates>
				</Point>
			</Placemark>
			<Placemark>
				<styleUrl>#sn_pm_circle3140</styleUrl>
				<LineString>
					<coordinates>
						3.511622,43.89429,0 3.512595,43.91184,0 
					</coordinates>
				</LineString>
			</Placemark>
			<Placemark>
				<name>Mont Aigoual</name>
				<styleUrl>#sn_pm_circle3140</styleUrl>
				<Point>
					<coordinates>3.575,44.12278,0</coordinates>
				</Point>
			</Placemark>
			<Placemark>
				<name>Pont du Gard</name>
				<styleUrl>#sn_pm_circle3140</styleUrl>
				<Point>
					<coordinates>4.536058,43.94683,0</coordinates>
				</Point>
			</Placemark>
			<Placemark>
				<name>Sommières</name>
				<styleUrl>#sn_pm_circle3140</styleUrl>
				<Point>
					<coordinates>4.089447,43.78355,0</coordinates>
				</Point>
			</Placemark>
			<Placemark>
				<name>Uzès</name>
				<styleUrl>#sn_pm_circle3140</styleUrl>
				<Point>
					<coordinates>4.418989,44.0107,0</coordinates>
				</Point>
			</Placemark>
		</Folder>
		<Folder>
			<name>31 Haute-Garonne</name>
			<open>1</open>
			<Placemark>
				<name>Aurignac</name>
				<styleUrl>#sn_pm_circle3140</styleUrl>
				<Point>
					<coordinates>0.8817533000000001,43.21714,0</coordinates>
				</Point>
			</Placemark>
			<Placemark>
				<name>Cintegabelle</name>
				<styleUrl>#sn_pm_circle3140</styleUrl>
				<Point>
					<coordinates>1.531711,43.31276,0</coordinates>
				</Point>
			</Placemark>
			<Placemark>
				<name>Lévignac</name>
				<styleUrl>#sn_pm_circle3140</styleUrl>
				<Point>
					<coordinates>1.193486,43.66591,0</coordinates>
				</Point>
			</Placemark>
			<Placemark>
				<name>L&apos;Isle-en-Dodon</name>
				<styleUrl>#sn_pm_circle3140</styleUrl>
				<Point>
					<coordinates>0.8351408999999999,43.38607,0</coordinates>
				</Point>
			</Placemark>
			<Placemark>
				<name>Saint-Bertrand-de-Comminges</name>
				<styleUrl>#sn_pm_circle3140</styleUrl>
				<Point>
					<coordinates>0.5736991,43.02753,0</coordinates>
				</Point>
			</Placemark>
			<Placemark>
				<name>Superbagnères</name>
				<styleUrl>#sn_pm_circle3140</styleUrl>
				<Point>
					<coordinates>0.5770512,42.76791,0</coordinates>
				</Point>
			</Placemark>
		</Folder>
		<Folder>
			<name>34 Hérault</name>
			<open>1</open>
			<Placemark>
				<name>Fraisse-sur-Agout</name>
				<styleUrl>#sn_pm_circle3140</styleUrl>
				<Point>
					<coordinates>2.79794,43.6059,0</coordinates>
				</Point>
			</Placemark>
			<Placemark>
				<name>Le Caylar</name>
				<styleUrl>#sn_pm_circle3140</styleUrl>
				<Point>
					<coordinates>3.319643999999999,43.86353,0</coordinates>
				</Point>
			</Placemark>
			<Placemark>
				<name>Minerve</name>
				<styleUrl>#sn_pm_circle3140</styleUrl>
				<Point>
					<coordinates>2.746427,43.35445,0</coordinates>
				</Point>
			</Placemark>
			<Placemark>
				<name>Mourèze</name>
				<styleUrl>#sn_pm_circle3140</styleUrl>
				<Point>
					<coordinates>3.356143,43.61852,0</coordinates>
				</Point>
			</Placemark>
			<Placemark>
				<name>Saint-Guilhem-le-Désert</name>
				<styleUrl>#sn_pm_circle3140</styleUrl>
				<Point>
					<coordinates>3.548219,43.73363,0</coordinates>
				</Point>
			</Placemark>
			<Placemark>
				<name>Sète</name>
				<styleUrl>#sn_pm_circle3140</styleUrl>
				<Point>
					<coordinates>3.696605,43.4017,0</coordinates>
				</Point>
			</Placemark>
		</Folder>
		<Folder>
			<name>43 Haute-Loire</name>
			<open>1</open>
			<Placemark>
				<name>La Chaise-Dieu</name>
				<styleUrl>#sn_pm_circle3140</styleUrl>
				<Point>
					<coordinates>3.697948,45.32142,0</coordinates>
				</Point>
			</Placemark>
			<Placemark>
				<name>Lac du Bouchet</name>
				<styleUrl>#sn_pm_circle3140</styleUrl>
				<Point>
					<coordinates>3.790504,44.90811,0</coordinates>
				</Point>
			</Placemark>
			<Placemark>
				<name>Lavaudieu</name>
				<styleUrl>#sn_pm_circle3140</styleUrl>
				<Point>
					<coordinates>3.454048,45.26341000000001,0</coordinates>
				</Point>
			</Placemark>
			<Placemark>
				<name>Monistrol-d&apos;Allier</name>
				<styleUrl>#sn_pm_circle3140</styleUrl>
				<Point>
					<coordinates>3.641737,44.96836,0</coordinates>
				</Point>
			</Placemark>
			<Placemark>
				<name>Saint-Front</name>
				<styleUrl>#sn_pm_circle3140</styleUrl>
				<Point>
					<coordinates>4.142779,44.97723,0</coordinates>
				</Point>
			</Placemark>
			<Placemark>
				<name>Tence</name>
				<styleUrl>#sn_pm_circle3140</styleUrl>
				<Point>
					<coordinates>4.290467,45.11458,0</coordinates>
				</Point>
			</Placemark>
		</Folder>
		<Folder>
			<name>48 Lozère</name>
			<open>1</open>
			<Placemark>
				<name>Aven Armand</name>
				<styleUrl>#sn_pm_circle3140</styleUrl>
				<Point>
					<coordinates>3.357222,44.22111,0</coordinates>
				</Point>
			</Placemark>
			<Placemark>
				<name>Barre-des-Cévennes</name>
				<styleUrl>#sn_pm_circle3140</styleUrl>
				<Point>
					<coordinates>3.65509,44.24408,0</coordinates>
				</Point>
			</Placemark>
			<Placemark>
				<name>Châteauneuf-de-Randon</name>
				<styleUrl>#sn_pm_circle3140</styleUrl>
				<Point>
					<coordinates>3.675208,44.64046,0</coordinates>
				</Point>
			</Placemark>
			<Placemark>
				<name>Fournels</name>
				<styleUrl>#sn_pm_circle3140</styleUrl>
				<Point>
					<coordinates>3.11884,44.81668,0</coordinates>
				</Point>
			</Placemark>
			<Placemark>
				<name>Le Pont-de-Montvert</name>
				<styleUrl>#sn_pm_circle3140</styleUrl>
				<Point>
					<coordinates>3.743621,44.3633,0</coordinates>
				</Point>
			</Placemark>
			<Placemark>
				<name>Les Vignes</name>
				<styleUrl>#sn_pm_circle3140</styleUrl>
				<Point>
					<coordinates>3.229161,44.27905,0</coordinates>
				</Point>
			</Placemark>
		</Folder>
		<Folder>
			<name>81 Tarn</name>
			<open>1</open>
			<Placemark>
				<name>Ambialet</name>
				<styleUrl>#sn_pm_circle3140</styleUrl>
				<Point>
					<coordinates>2.377899,43.94477,0</coordinates>
				</Point>
			</Placemark>
			<Placemark>
				<name>Cordes-sur-Ciel</name>
				<styleUrl>#sn_pm_circle3140</styleUrl>
				<Point>
					<coordinates>1.958202,44.06253,0</coordinates>
				</Point>
			</Placemark>
			<Placemark>
				<name>Lacaune</name>
				<styleUrl>#sn_pm_circle3140</styleUrl>
				<Point>
					<coordinates>2.69174,43.70721,0</coordinates>
				</Point>
			</Placemark>
			<Placemark>
				<name>Lacrouzette</name>
				<styleUrl>#sn_pm_circle3140</styleUrl>
				<Point>
					<coordinates>2.349178,43.66339,0</coordinates>
				</Point>
			</Placemark>
			<Placemark>
				<name>Pampelonne</name>
				<styleUrl>#sn_pm_circle3140</styleUrl>
				<Point>
					<coordinates>2.246201,44.12505,0</coordinates>
				</Point>
			</Placemark>
			<Placemark>
				<name>Puylaurens</name>
				<styleUrl>#sn_pm_circle3140</styleUrl>
				<Point>
					<coordinates>2.013837,43.57184,0</coordinates>
				</Point>
			</Placemark>
		</Folder>
	</Folder>
	<Folder>
		<name>Limousin</name>
		<Folder>
			<name>19 Corrèze</name>
			<open>1</open>
			<Placemark>
				<name>Argentat</name>
				<styleUrl>#sn_pm_circle3140</styleUrl>
				<Point>
					<coordinates>1.938441,45.09288,0</coordinates>
				</Point>
			</Placemark>
			<Placemark>
				<name>Bort-les-Orgues</name>
				<styleUrl>#sn_pm_circle3140</styleUrl>
				<Point>
					<coordinates>2.495622,45.40043,0</coordinates>
				</Point>
			</Placemark>
			<Placemark>
				<name>Collonges-la-Rouge</name>
				<styleUrl>#sn_pm_circle3140</styleUrl>
				<Point>
					<coordinates>1.655261,45.06201999999999,0</coordinates>
				</Point>
			</Placemark>
			<Placemark>
				<name>Meymac</name>
				<styleUrl>#sn_pm_circle3140</styleUrl>
				<Point>
					<coordinates>2.146825,45.53503,0</coordinates>
				</Point>
			</Placemark>
			<Placemark>
				<name>Treignac</name>
				<styleUrl>#sn_pm_circle3140</styleUrl>
				<Point>
					<coordinates>1.794466,45.53744,0</coordinates>
				</Point>
			</Placemark>
			<Placemark>
				<name>Voutezac</name>
				<styleUrl>#sn_pm_circle3140</styleUrl>
				<Point>
					<coordinates>1.438204,45.29273000000001,0</coordinates>
				</Point>
			</Placemark>
		</Folder>
		<Folder>
			<name>87 Haute-Vienne</name>
			<open>1</open>
			<Placemark>
				<name>Châlus</name>
				<styleUrl>#sn_pm_circle3140</styleUrl>
				<Point>
					<coordinates>0.9787848999999998,45.65487,0</coordinates>
				</Point>
			</Placemark>
			<Placemark>
				<name>Châteauponsac</name>
				<styleUrl>#sn_pm_circle3140</styleUrl>
				<Point>
					<coordinates>1.273695,46.13419999999999,0</coordinates>
				</Point>
			</Placemark>
			<Placemark>
				<name>Cieux</name>
				<styleUrl>#sn_pm_circle3140</styleUrl>
				<Point>
					<coordinates>1.045537,45.99166,0</coordinates>
				</Point>
			</Placemark>
			<Placemark>
				<name>La Jonchère-Saint-Maurice</name>
				<styleUrl>#sn_pm_circle3140</styleUrl>
				<Point>
					<coordinates>1.468549,45.99889,0</coordinates>
				</Point>
			</Placemark>
			<Placemark>
				<name>Le Dorat</name>
				<styleUrl>#sn_pm_circle3140</styleUrl>
				<Point>
					<coordinates>1.081748,46.21444,0</coordinates>
				</Point>
			</Placemark>
			<Placemark>
				<name>Nexon</name>
				<styleUrl>#sn_pm_circle3140</styleUrl>
				<Point>
					<coordinates>1.188872,45.67701000000001,0</coordinates>
				</Point>
			</Placemark>
		</Folder>
	</Folder>
	<Folder>
		<name>Lorraine</name>
		<Folder>
			<name>54 Meurthe-et-Moselle</name>
			<open>1</open>
			<Placemark>
				<name>Longuyon</name>
				<styleUrl>#sn_pm_circle3140</styleUrl>
				<Point>
					<coordinates>5.599731,49.44982,0</coordinates>
				</Point>
			</Placemark>
			<Placemark>
				<name>Mousson</name>
				<styleUrl>#sn_pm_circle3140</styleUrl>
				<Point>
					<coordinates>6.079878,48.90635,0</coordinates>
				</Point>
			</Placemark>
			<Placemark>
				<name>Nancy</name>
				<styleUrl>#sn_pm_circle3140</styleUrl>
				<Point>
					<coordinates>6.182504,48.69079,0</coordinates>
				</Point>
			</Placemark>
			<Placemark>
				<name>Pierre-Percée</name>
				<styleUrl>#sn_pm_circle3140</styleUrl>
				<Point>
					<coordinates>6.932319,48.46889999999999,0</coordinates>
				</Point>
			</Placemark>
			<Placemark>
				<name>Toul</name>
				<styleUrl>#sn_pm_circle3140</styleUrl>
				<Point>
					<coordinates>5.895101,48.68346,0</coordinates>
				</Point>
			</Placemark>
			<Placemark>
				<name>Vaudémont</name>
				<styleUrl>#sn_pm_circle3140</styleUrl>
				<Point>
					<coordinates>6.056118,48.41779,0</coordinates>
				</Point>
			</Placemark>
			<Placemark>
				<name>Saxon Sion</name>
				<styleUrl>#sn_pm_circle3140</styleUrl>
				<Point>
					<coordinates>6.084042,48.43012,0</coordinates>
				</Point>
			</Placemark>
			<Placemark>
				<styleUrl>#sn_pm_circle3140</styleUrl>
				<LineString>
					<coordinates>
						6.084042,48.43012,0 6.056118,48.41779,0 
					</coordinates>
				</LineString>
			</Placemark>
		</Folder>
		<Folder>
			<name>55 Meuse</name>
			<Placemark>
				<name>Avioth</name>
				<styleUrl>#sn_pm_circle3140</styleUrl>
				<Point>
					<coordinates>5.391386,49.5666,0</coordinates>
				</Point>
			</Placemark>
			<Placemark>
				<name>Douaumont</name>
				<styleUrl>#sn_pm_circle3140</styleUrl>
				<Point>
					<coordinates>5.433902,49.21889,0</coordinates>
				</Point>
			</Placemark>
			<Placemark>
				<name>Hattonchâtel</name>
				<styleUrl>#sn_pm_circle3140</styleUrl>
				<Point>
					<coordinates>5.702575,48.99212,0</coordinates>
				</Point>
			</Placemark>
			<Placemark>
				<name>Montfaucon d&apos;Argonne</name>
				<styleUrl>#sn_pm_circle3140</styleUrl>
				<Point>
					<coordinates>5.133152,49.27175,0</coordinates>
				</Point>
			</Placemark>
			<Placemark>
				<name>Montsec</name>
				<styleUrl>#sn_pm_circle3140</styleUrl>
				<Point>
					<coordinates>5.719878,48.8909,0</coordinates>
				</Point>
			</Placemark>
			<Placemark>
				<name>Saint-Mihiel</name>
				<styleUrl>#sn_pm_circle3140</styleUrl>
				<Point>
					<coordinates>5.541263,48.89226,0</coordinates>
				</Point>
			</Placemark>
		</Folder>
		<Folder>
			<name>57 Moselle</name>
			<Placemark>
				<name>Dabo</name>
				<styleUrl>#sn_pm_circle3140</styleUrl>
				<Point>
					<coordinates>7.235969999999999,48.6538,0</coordinates>
				</Point>
			</Placemark>
			<Placemark>
				<name>Lutzelbourg</name>
				<styleUrl>#sn_pm_circle3140</styleUrl>
				<Point>
					<coordinates>7.25029,48.73562,0</coordinates>
				</Point>
			</Placemark>
			<Placemark>
				<name>Marsal</name>
				<styleUrl>#sn_pm_circle3140</styleUrl>
				<Point>
					<coordinates>6.60924,48.78804,0</coordinates>
				</Point>
			</Placemark>
			<Placemark>
				<name>Metz</name>
				<styleUrl>#sn_pm_circle3140</styleUrl>
				<Point>
					<coordinates>6.172696,49.11613,0</coordinates>
				</Point>
			</Placemark>
			<Placemark>
				<name>Philippsbourg</name>
				<styleUrl>#sn_pm_circle3140</styleUrl>
				<Point>
					<coordinates>7.567527,48.98398,0</coordinates>
				</Point>
			</Placemark>
			<Placemark>
				<name>Thionville</name>
				<styleUrl>#sn_pm_circle3140</styleUrl>
				<Point>
					<coordinates>6.168567,49.35714,0</coordinates>
				</Point>
			</Placemark>
		</Folder>
		<Folder>
			<name>88 Vosges</name>
			<Placemark>
				<name>Bruyères</name>
				<styleUrl>#sn_pm_circle3140</styleUrl>
				<Point>
					<coordinates>6.719713999999999,48.21066999999999,0</coordinates>
				</Point>
			</Placemark>
			<Placemark>
				<name>Col de la Schlucht</name>
				<styleUrl>#sn_pm_circle3140</styleUrl>
				<Point>
					<coordinates>7.02284,48.06387,0</coordinates>
				</Point>
			</Placemark>
			<Placemark>
				<name>Domrémy-la-Pucelle</name>
				<styleUrl>#sn_pm_circle3140</styleUrl>
				<Point>
					<coordinates>5.675222,48.44292,0</coordinates>
				</Point>
			</Placemark>
			<Placemark>
				<name>Eloyes</name>
				<styleUrl>#sn_pm_circle3140</styleUrl>
				<Point>
					<coordinates>6.610422,48.09284,0</coordinates>
				</Point>
			</Placemark>
			<Placemark>
				<name>Gérardmer</name>
				<styleUrl>#sn_pm_circle3140</styleUrl>
				<Point>
					<coordinates>6.870955,48.06916,0</coordinates>
				</Point>
			</Placemark>
			<Placemark>
				<name>Le Val-d&apos;Ajol</name>
				<styleUrl>#sn_pm_circle3140</styleUrl>
				<Point>
					<coordinates>6.483828999999999,47.92588,0</coordinates>
				</Point>
			</Placemark>
		</Folder>
	</Folder>
	<Folder>
		<name>Lyonnais</name>
		<Folder>
			<name>42 Loire</name>
			<open>1</open>
			<Placemark>
				<name>Chalmazel</name>
				<styleUrl>#sn_pm_circle3140</styleUrl>
				<Point>
					<coordinates>3.850538,45.70380999999999,0</coordinates>
				</Point>
			</Placemark>
			<Placemark>
				<name>Chambles</name>
				<styleUrl>#sn_pm_circle3140</styleUrl>
				<Point>
					<coordinates>4.240153,45.44238000000001,0</coordinates>
				</Point>
			</Placemark>
			<Placemark>
				<name>Col du Grand Bois ou de la République</name>
				<styleUrl>#sn_pm_circle3140</styleUrl>
				<Point>
					<coordinates>4.458582,45.36011999999999,0</coordinates>
				</Point>
			</Placemark>
			<Placemark>
				<name>Saint-Bonnet-le-Château</name>
				<styleUrl>#sn_pm_circle3140</styleUrl>
				<Point>
					<coordinates>4.066372,45.42511,0</coordinates>
				</Point>
			</Placemark>
			<Placemark>
				<name>Saint-Just-en-Chevalet</name>
				<description>J4</description>
				<styleUrl>#sn_pm_circle3140</styleUrl>
				<Point>
					<coordinates>3.84614,45.91443,0</coordinates>
				</Point>
			</Placemark>
			<Placemark>
				<name>Saint-Maurice Saint-Jean</name>
				<LookAt>
					<longitude>3.995952558993776</longitude>
					<latitude>45.95775893288098</latitude>
					<altitude>0</altitude>
					<heading>0.0001590698389873834</heading>
					<tilt>28.07574657054075</tilt>
					<range>700.9527664255532</range>
					<gx:altitudeMode>relativeToSeaFloor</gx:altitudeMode>
				</LookAt>
				<styleUrl>#sn_pm_circle3140</styleUrl>
				<Point>
					<gx:drawOrder>1</gx:drawOrder>
					<coordinates>3.997310787483395,45.95682802058319,0</coordinates>
				</Point>
			</Placemark>
		</Folder>
		<Folder>
			<name>69 Rhône</name>
			<Placemark>
				<name>Beaujeu</name>
				<styleUrl>#sn_pm_circle3140</styleUrl>
				<Point>
					<coordinates>4.586885,46.15506,0</coordinates>
				</Point>
			</Placemark>
			<Placemark>
				<name>Col des Sauvages</name>
				<styleUrl>#sn_pm_circle3140</styleUrl>
				<Point>
					<coordinates>4.378402,45.92762,0</coordinates>
				</Point>
			</Placemark>
			<Placemark>
				<name>Montrottier</name>
				<styleUrl>#sn_pm_circle3140</styleUrl>
				<Point>
					<coordinates>4.466492,45.79001,0</coordinates>
				</Point>
			</Placemark>
			<Placemark>
				<name>Oingt</name>
				<styleUrl>#sn_pm_circle3140</styleUrl>
				<Point>
					<coordinates>4.581903,45.94859,0</coordinates>
				</Point>
			</Placemark>
			<Placemark>
				<name>Vaux-en-Beaujolais</name>
				<styleUrl>#sn_pm_circle3140</styleUrl>
				<Point>
					<coordinates>4.591759,46.05605000000001,0</coordinates>
				</Point>
			</Placemark>
			<Placemark>
				<name>Yzeron</name>
				<styleUrl>#sn_pm_circle3140</styleUrl>
				<Point>
					<coordinates>4.59067,45.70850000000001,0</coordinates>
				</Point>
			</Placemark>
		</Folder>
	</Folder>
	<Folder>
		<name>Maine</name>
		<Folder>
			<name>53 Mayenne</name>
			<open>1</open>
			<Placemark>
				<name>Ernée</name>
				<styleUrl>#sn_pm_circle3140</styleUrl>
				<Point>
					<coordinates>-0.9314241999999999,48.29547,0</coordinates>
				</Point>
			</Placemark>
			<Placemark>
				<name>Jublains</name>
				<styleUrl>#sn_pm_circle3140</styleUrl>
				<Point>
					<coordinates>-0.4953863,48.25623,0</coordinates>
				</Point>
			</Placemark>
			<Placemark>
				<name>Lassay-les-Châteaux</name>
				<styleUrl>#sn_pm_circle3140</styleUrl>
				<Point>
					<coordinates>-0.4951066000000001,48.43657999999999,0</coordinates>
				</Point>
			</Placemark>
			<Placemark>
				<name>Ménil</name>
				<styleUrl>#sn_pm_circle3140</styleUrl>
				<Point>
					<coordinates>-0.6743699,47.77533,0</coordinates>
				</Point>
			</Placemark>
			<Placemark>
				<name>Pré-en-Pail</name>
				<styleUrl>#sn_pm_circle3140</styleUrl>
				<Point>
					<coordinates>-0.1983609,48.45971,0</coordinates>
				</Point>
			</Placemark>
			<Placemark>
				<name>Sainte-Suzanne</name>
				<styleUrl>#sn_pm_circle3140</styleUrl>
				<Point>
					<coordinates>-0.3515344,48.09755999999999,0</coordinates>
				</Point>
			</Placemark>
		</Folder>
		<Folder>
			<name>72 Sarthe</name>
			<open>1</open>
			<Placemark>
				<name>Ballon</name>
				<styleUrl>#sn_pm_circle3140</styleUrl>
				<Point>
					<coordinates>0.2338243,48.17672,0</coordinates>
				</Point>
			</Placemark>
			<Placemark>
				<name>Malicorne-sur-Sarthe</name>
				<styleUrl>#sn_pm_circle3140</styleUrl>
				<Point>
					<coordinates>-0.0887578,47.81436,0</coordinates>
				</Point>
			</Placemark>
			<Placemark>
				<name>Montmirail</name>
				<styleUrl>#sn_pm_circle3140</styleUrl>
				<Point>
					<coordinates>0.7914539,48.10386999999999,0</coordinates>
				</Point>
			</Placemark>
			<Placemark>
				<name>Poncé-sur-le-Loir</name>
				<styleUrl>#sn_pm_circle3140</styleUrl>
				<Point>
					<coordinates>0.6581832,47.76354,0</coordinates>
				</Point>
			</Placemark>
			<Placemark>
				<name>Saint-Léonard-des-Bois</name>
				<styleUrl>#sn_pm_circle3140</styleUrl>
				<Point>
					<coordinates>-0.077083,48.35238,0</coordinates>
				</Point>
			</Placemark>
			<Placemark>
				<name>Solesmes</name>
				<styleUrl>#sn_pm_circle3140</styleUrl>
				<Point>
					<coordinates>-0.302777,47.85149,0</coordinates>
				</Point>
			</Placemark>
		</Folder>
	</Folder>
	<Folder>
		<name>Marche</name>
		<Folder>
			<name>23 Creuse</name>
			<open>1</open>
			<Placemark>
				<name>Anzème</name>
				<styleUrl>#sn_pm_circle3140</styleUrl>
				<Point>
					<coordinates>1.863621,46.26782,0</coordinates>
				</Point>
			</Placemark>
			<Placemark>
				<name>Châtelus-le-Marcheix</name>
				<styleUrl>#sn_pm_circle3140</styleUrl>
				<Point>
					<coordinates>1.608066,45.9992,0</coordinates>
				</Point>
			</Placemark>
			<Placemark>
				<name>Crozant</name>
				<styleUrl>#sn_pm_circle3140</styleUrl>
				<Point>
					<coordinates>1.621726,46.39189999999999,0</coordinates>
				</Point>
			</Placemark>
			<Placemark>
				<name>Evaux-les-Bains</name>
				<styleUrl>#sn_pm_circle3140</styleUrl>
				<Point>
					<coordinates>2.485456,46.17659,0</coordinates>
				</Point>
			</Placemark>
			<Placemark>
				<name>Saint-Georges-Nigremont</name>
				<styleUrl>#sn_pm_circle3140</styleUrl>
				<Point>
					<coordinates>2.2647,45.83705999999999,0</coordinates>
				</Point>
			</Placemark>
			<Placemark>
				<name>Toulx-Sainte-Croix</name>
				<styleUrl>#sn_pm_circle3140</styleUrl>
				<Point>
					<coordinates>2.213876,46.28427,0</coordinates>
				</Point>
			</Placemark>
		</Folder>
	</Folder>
	<Folder>
		<name>Nivernais</name>
		<Folder>
			<name>58 Nièvre</name>
			<open>1</open>
			<Placemark>
				<name>Château-Chinon</name>
				<styleUrl>#sn_pm_circle3140</styleUrl>
				<Point>
					<coordinates>3.945357,47.04934,0</coordinates>
				</Point>
			</Placemark>
			<Placemark>
				<name>Donzy</name>
				<styleUrl>#sn_pm_circle3140</styleUrl>
				<Point>
					<coordinates>3.126625,47.36994,0</coordinates>
				</Point>
			</Placemark>
			<Placemark>
				<name>La Machine</name>
				<styleUrl>#sn_pm_circle3140</styleUrl>
				<Point>
					<coordinates>3.465882,46.88991,0</coordinates>
				</Point>
			</Placemark>
			<Placemark>
				<name>Lac des Settons</name>
				<styleUrl>#sn_pm_circle3140</styleUrl>
				<Point>
					<coordinates>4.063265,47.18386000000001,0</coordinates>
				</Point>
			</Placemark>
			<Placemark>
				<name>Lormes</name>
				<styleUrl>#sn_pm_circle3140</styleUrl>
				<Point>
					<coordinates>3.814079,47.29026,0</coordinates>
				</Point>
			</Placemark>
			<Placemark>
				<name>Saint-Vérain</name>
				<styleUrl>#sn_pm_circle3140</styleUrl>
				<Point>
					<coordinates>3.055821,47.48058999999999,0</coordinates>
				</Point>
			</Placemark>
		</Folder>
	</Folder>
	<Folder>
		<name>Normandie</name>
		<Folder>
			<name>14 Calvados</name>
			<open>1</open>
			<Placemark>
				<name>Balleroy</name>
				<styleUrl>#sn_pm_circle3140</styleUrl>
				<Point>
					<coordinates>-0.8386494,49.1808,0</coordinates>
				</Point>
			</Placemark>
			<Placemark>
				<name>Beuvron-en-Auge</name>
				<styleUrl>#sn_pm_circle3140</styleUrl>
				<Point>
					<coordinates>-0.0457464,49.18748,0</coordinates>
				</Point>
			</Placemark>
			<Placemark>
				<name>Blangy-le-Château</name>
				<styleUrl>#sn_pm_circle3140</styleUrl>
				<Point>
					<coordinates>0.2730553,49.24372,0</coordinates>
				</Point>
			</Placemark>
			<Placemark>
				<name>Honfleur</name>
				<styleUrl>#sn_pm_circle3140</styleUrl>
				<Point>
					<coordinates>0.2326025,49.41946999999999,0</coordinates>
				</Point>
			</Placemark>
			<Placemark>
				<name>Orbec</name>
				<styleUrl>#sn_pm_circle3140</styleUrl>
				<Point>
					<coordinates>0.4059664,49.02306000000001,0</coordinates>
				</Point>
			</Placemark>
			<Placemark>
				<name>Thury-Harcourt</name>
				<styleUrl>#sn_pm_circle3140</styleUrl>
				<Point>
					<coordinates>-0.476828,48.98549000000001,0</coordinates>
				</Point>
			</Placemark>
		</Folder>
		<Folder>
			<name>27 Eure</name>
			<open>1</open>
			<Placemark>
				<name>Beaumont-le-Roger</name>
				<styleUrl>#sn_pm_circle3140</styleUrl>
				<Point>
					<coordinates>0.7777355,49.08134,0</coordinates>
				</Point>
			</Placemark>
			<Placemark>
				<name>Brionne</name>
				<styleUrl>#sn_pm_circle3140</styleUrl>
				<Point>
					<coordinates>0.7205419,49.19532,0</coordinates>
				</Point>
			</Placemark>
			<Placemark>
				<name>Conches-en-Ouche</name>
				<styleUrl>#sn_pm_circle3140</styleUrl>
				<Point>
					<coordinates>0.9417808,48.96212000000001,0</coordinates>
				</Point>
			</Placemark>
			<Placemark>
				<name>Les Andelys</name>
				<styleUrl>#sn_pm_circle3140</styleUrl>
				<Point>
					<coordinates>1.419155,49.24682,0</coordinates>
				</Point>
			</Placemark>
			<Placemark>
				<name>Lyons-la-Forêt</name>
				<styleUrl>#sn_pm_circle3140</styleUrl>
				<Point>
					<coordinates>1.476573,49.39869,0</coordinates>
				</Point>
			</Placemark>
			<Placemark>
				<name>Verneuil-sur-Avre</name>
				<styleUrl>#sn_pm_circle3140</styleUrl>
				<Point>
					<coordinates>0.9291438,48.73603,0</coordinates>
				</Point>
			</Placemark>
		</Folder>
		<Folder>
			<name>50 Manche</name>
			<open>1</open>
			<Placemark>
				<name>Auderville</name>
				<styleUrl>#sn_pm_circle3140</styleUrl>
				<Point>
					<coordinates>-1.932042,49.71145,0</coordinates>
				</Point>
			</Placemark>
			<Placemark>
				<name>Condé-sur-Viré</name>
				<styleUrl>#sn_pm_circle3140</styleUrl>
				<Point>
					<coordinates>-1.037244,49.05162,0</coordinates>
				</Point>
			</Placemark>
			<Placemark>
				<name>Mont-Saint-Michel</name>
				<styleUrl>#sn_pm_circle3140</styleUrl>
				<Point>
					<coordinates>-1.5106,48.6356,0</coordinates>
				</Point>
			</Placemark>
			<Placemark>
				<name>Mortain</name>
				<styleUrl>#sn_pm_circle3140</styleUrl>
				<Point>
					<coordinates>-0.9385509,48.64668,0</coordinates>
				</Point>
			</Placemark>
			<Placemark>
				<name>Saint-Sauveur-le-Vicomte</name>
				<styleUrl>#sn_pm_circle3140</styleUrl>
				<Point>
					<coordinates>-1.529562,49.3856,0</coordinates>
				</Point>
			</Placemark>
			<Placemark>
				<name>Saint-Vaast-la-Hougue</name>
				<styleUrl>#sn_pm_circle3140</styleUrl>
				<Point>
					<coordinates>-1.268098,49.58762,0</coordinates>
				</Point>
			</Placemark>
		</Folder>
		<Folder>
			<name>61 Orne</name>
			<open>1</open>
			<Placemark>
				<name>Bagnoles de l&apos;Orne</name>
				<styleUrl>#sn_pm_circle3140</styleUrl>
				<Point>
					<coordinates>-0.4123781,48.557,0</coordinates>
				</Point>
			</Placemark>
			<Placemark>
				<name>Carrouges</name>
				<styleUrl>#sn_pm_circle3140</styleUrl>
				<Point>
					<coordinates>-0.1450393,48.5679,0</coordinates>
				</Point>
			</Placemark>
			<Placemark>
				<name>Longny-au-perche</name>
				<styleUrl>#sn_pm_circle3140</styleUrl>
				<Point>
					<coordinates>0.7527648,48.53078,0</coordinates>
				</Point>
			</Placemark>
			<Placemark>
				<name>Mortrée</name>
				<styleUrl>#sn_pm_circle3140</styleUrl>
				<Point>
					<coordinates>0.0748505,48.64023,0</coordinates>
				</Point>
			</Placemark>
			<Placemark>
				<name>Putanges</name>
				<styleUrl>#sn_pm_circle3140</styleUrl>
				<Point>
					<coordinates>-0.2476331,48.76327,0</coordinates>
				</Point>
			</Placemark>
			<Placemark>
				<name>Soligny-la-Trappe</name>
				<styleUrl>#sn_pm_circle3140</styleUrl>
				<Point>
					<coordinates>0.5356557204118562,48.61516093188406,0</coordinates>
				</Point>
			</Placemark>
		</Folder>
		<Folder>
			<name>76 Seine-Maritime</name>
			<open>1</open>
			<Placemark>
				<name>Arques-la-Bataille</name>
				<styleUrl>#sn_pm_circle3140</styleUrl>
				<Point>
					<coordinates>1.126921,49.88364,0</coordinates>
				</Point>
			</Placemark>
			<Placemark>
				<name>Caudebec-en-Caux</name>
				<styleUrl>#sn_pm_circle3140</styleUrl>
				<Point>
					<coordinates>0.7245011,49.52622,0</coordinates>
				</Point>
			</Placemark>
			<Placemark>
				<name>Etetrat</name>
				<styleUrl>#sn_pm_circle3140</styleUrl>
				<Point>
					<coordinates>0.2098848,49.70762,0</coordinates>
				</Point>
			</Placemark>
			<Placemark>
				<name>Gaillefontaine</name>
				<styleUrl>#sn_pm_circle3140</styleUrl>
				<Point>
					<coordinates>1.615523,49.65403,0</coordinates>
				</Point>
			</Placemark>
			<Placemark>
				<name>Jumièges</name>
				<styleUrl>#sn_pm_circle3140</styleUrl>
				<Point>
					<coordinates>0.8195457999999999,49.43282,0</coordinates>
				</Point>
			</Placemark>
			<Placemark>
				<name>Saint-Valéry-en-Caux</name>
				<styleUrl>#sn_pm_circle3140</styleUrl>
				<Point>
					<coordinates>0.7115488,49.8684,0</coordinates>
				</Point>
			</Placemark>
		</Folder>
	</Folder>
	<Folder>
		<name>Orléanais</name>
		<Folder>
			<name>28 Eure-et-Loir</name>
			<open>1</open>
			<Placemark>
				<name>Anet</name>
				<styleUrl>#sn_pm_circle3140</styleUrl>
				<Point>
					<coordinates>1.438069,48.85807,0</coordinates>
				</Point>
			</Placemark>
			<Placemark>
				<name>Chateaudun</name>
				<styleUrl>#sn_pm_circle3140</styleUrl>
				<Point>
					<coordinates>1.329393,48.06962,0</coordinates>
				</Point>
			</Placemark>
			<Placemark>
				<name>Gallardon</name>
				<styleUrl>#sn_pm_circle3140</styleUrl>
				<Point>
					<coordinates>1.687719,48.52542,0</coordinates>
				</Point>
			</Placemark>
			<Placemark>
				<name>La Ferté Vidame</name>
				<styleUrl>#sn_pm_circle3140</styleUrl>
				<Point>
					<coordinates>0.900477,48.61048999999999,0</coordinates>
				</Point>
			</Placemark>
			<Placemark>
				<name>Maintenon</name>
				<styleUrl>#sn_pm_circle3140</styleUrl>
				<Point>
					<coordinates>1.576872,48.58751,0</coordinates>
				</Point>
			</Placemark>
			<Placemark>
				<name>Nogent-le-Rotrou</name>
				<styleUrl>#sn_pm_circle3140</styleUrl>
				<Point>
					<coordinates>0.8199870132593134,48.31941826662973,0</coordinates>
				</Point>
			</Placemark>
		</Folder>
		<Folder>
			<name>41 Loir-et-Cher</name>
			<open>1</open>
			<Placemark>
				<name>Chambord</name>
				<styleUrl>#sn_pm_circle3140</styleUrl>
				<Point>
					<coordinates>1.518553,47.61297999999999,0</coordinates>
				</Point>
			</Placemark>
			<Placemark>
				<name>Mondoubleau</name>
				<styleUrl>#sn_pm_circle3140</styleUrl>
				<Point>
					<coordinates>0.8951499000000001,47.98036999999999,0</coordinates>
				</Point>
			</Placemark>
			<Placemark>
				<name>Romorantin-Lanthenay</name>
				<styleUrl>#sn_pm_circle3140</styleUrl>
				<Point>
					<coordinates>1.744437,47.35944,0</coordinates>
				</Point>
			</Placemark>
			<Placemark>
				<name>Saint-Aignan-sur-Cher</name>
				<styleUrl>#sn_pm_circle3140</styleUrl>
				<Point>
					<coordinates>1.376116,47.26718,0</coordinates>
				</Point>
			</Placemark>
			<Placemark>
				<name>Souvigny-en-Soulogne</name>
				<styleUrl>#sn_pm_circle3140</styleUrl>
				<Point>
					<coordinates>2.163246,47.64365,0</coordinates>
				</Point>
			</Placemark>
			<Placemark>
				<name>Trôo</name>
				<styleUrl>#sn_pm_circle3140</styleUrl>
				<Point>
					<coordinates>0.7924177000000001,47.77751,0</coordinates>
				</Point>
			</Placemark>
		</Folder>
		<Folder>
			<name>45 Loiret</name>
			<open>1</open>
			<Placemark>
				<name>Beaugency</name>
				<styleUrl>#sn_pm_circle3140</styleUrl>
				<Point>
					<coordinates>1.634845,47.77761,0</coordinates>
				</Point>
			</Placemark>
			<Placemark>
				<name>Briare</name>
				<styleUrl>#sn_pm_circle3140</styleUrl>
				<Point>
					<coordinates>2.738956,47.63853,0</coordinates>
				</Point>
			</Placemark>
			<Placemark>
				<name>Châtillon-Coligny</name>
				<styleUrl>#sn_pm_circle3140</styleUrl>
				<Point>
					<coordinates>2.847648,47.82418,0</coordinates>
				</Point>
			</Placemark>
			<Placemark>
				<name>Cléry-Saint-André</name>
				<styleUrl>#sn_pm_circle3140</styleUrl>
				<Point>
					<coordinates>1.755562,47.82075,0</coordinates>
				</Point>
			</Placemark>
			<Placemark>
				<name>Malesherbes</name>
				<styleUrl>#sn_pm_circle3140</styleUrl>
				<Point>
					<coordinates>2.418051,48.29301,0</coordinates>
				</Point>
			</Placemark>
			<Placemark>
				<name>Saint-Benoît-sur-Loire</name>
				<styleUrl>#sn_pm_circle3140</styleUrl>
				<Point>
					<coordinates>2.306024,47.81045999999999,0</coordinates>
				</Point>
			</Placemark>
		</Folder>
	</Folder>
	<Folder>
		<name>Picardie</name>
		<Folder>
			<name>80 Somme</name>
			<open>1</open>
			<Placemark>
				<name>Argoulès</name>
				<styleUrl>#sn_pm_circle3140</styleUrl>
				<Point>
					<coordinates>1.835289,50.34180000000001,0</coordinates>
				</Point>
			</Placemark>
			<Placemark>
				<name>Bray-sur-Somme</name>
				<styleUrl>#sn_pm_circle3140</styleUrl>
				<Point>
					<coordinates>2.716901,49.93974,0</coordinates>
				</Point>
			</Placemark>
			<Placemark>
				<name>Crécy-en-Ponthieu</name>
				<styleUrl>#sn_pm_circle3140</styleUrl>
				<Point>
					<coordinates>1.881325,50.25195999999999,0</coordinates>
				</Point>
			</Placemark>
			<Placemark>
				<name>Le Hourdel</name>
				<styleUrl>#sn_pm_circle3140</styleUrl>
				<Point>
					<coordinates>1.565761,50.21494000000001,0</coordinates>
				</Point>
			</Placemark>
			<Placemark>
				<name>Naours</name>
				<styleUrl>#sn_pm_circle3140</styleUrl>
				<Point>
					<coordinates>2.275234,50.03476,0</coordinates>
				</Point>
			</Placemark>
			<Placemark>
				<name>Pozières</name>
				<styleUrl>#sn_pm_circle3140</styleUrl>
				<Point>
					<coordinates>2.726,50.03913,0</coordinates>
				</Point>
			</Placemark>